~VERSION INFORMATION 
VERS  .    2.0                                     :CWLS Log ASCII Standard - VERSION 2.0
WRAP  .    NO                                      :One Line per Depth step
PROD  .    Schlumberger Technology Corp.           :LAS Producer
PROG  .    Horizon LASWriter 6.2.68624.3100        :LAS Program name and version
SOURCE.    AT-33-F section 6.125" Run 1/1/1-Log[2]/Down:Run&Pass Information
CREA  .    07/28/2016                              :LAS Creation date {MM/DD/YYYY}
#--------------------------------------------------
~WELL INFORMATION 
#MNEM           .UNIT                      DATA            :DESCRIPTION
#----            ------          --------------            -----------------------------
STRT            .m                   1518.36120            :START DEPTH
STOP            .m                   3242.61480            :STOP DEPTH
STEP            .m                       0.1524            :STEP
NULL            .                       -999.25            :NULL VALUE
COMP            .                         PTTEP            :COMPANY
WELL            .                       AT-33-F            :WELL NAME
FLD             .                ARTHIT / Block: 15A       :FIELD NAME
RIGN            .                          T-17            :Rig Name
RIGTYP          .                Tender Assisted           :Rig Type
SON             .                    DGEY-00011            :Service Order Number
SRVC            .                  Schlumberger            :SERVICE COMPANY
DATE            .                    07/28/2016            :LOG DATE(Composite Date for Composite LAP) (MM/DD/YYYY)
CLAB            .                     Rig Name:            :County Label
CNTY            .                          T-17            :COUNTY
SLAB            .                      Country:            :State/Province Label
STAT            .                      Thailand            :STATE or PROVINCE
PROV            .                      Thailand            :STATE or PROVINCE
CTRY            .                      Thailand            :COUNTRY
CONT_REGION     .                          Asia            :Continent Region
SECT            .                                          :Section
TOWN            .                                          :Township
RANG            .                                          :Range
API             .                                          :API NUMBER
UWI             .                                          :UNIQUE WELL ID
LUL             .                      Thailand            :Logging Unit Location
LUN             .                          7003            :Logging Unit Number
LOC             .                Gulf of Thailand          :FIELD LOCATION
FL1             .                X: 890 685.860 mE (DATUM: INDIAN 1975):Field Location Line 1
FL2             .                Y: 893 515.640 mN (UTM ZONE 47N):Field Location Line 2
LATI            .deg             8° 4' 7.168" N            :LATITUDE
LONG            .deg             102° 32' 38.971" E        :LONGITUDE
PDAT            .                           MSL            :Local Permanent Datum
LMF             .                            DF            :Logging Measured From
APD             .m                     29.00000            :Elevation of Depth Reference (LMF) Above Permanent Datum
EPD             .m                      0.00000            :Elevation of Permanent Datum (PDAT) above Mean Sea Level
EKB             .m                     29.00000            :Elevation of Kelly Bushing Above Permanent Datum
EDF             .m                     29.00000            :Elevation of Drill Floor Above Permanent Datum
EGL             .m                    -77.08000            :Elevation of Ground Level Above Permanent Datum
ECF             .m                      -999.25            :Elevation of Casing Flange above Permanent Datum
#--------------------------------------------------
~CURVE INFORMATION
#MNEM           .UNIT                  API CODE            :DESCRIPTION
#----            ------          --------------            -----------------------------
DEPT            .m                                         :                                                        Depth Index
BS              .in                                        :(RT)    (Borehole)              (6in)                   Bit Size
TENS            .lbf                                       :        (WLWorkflow)            (6in)                   Cable Tension
HTEN            .lbf                                       :        (LEH-QT)                (6in)                   Head Tension
AT10            .ohm.m                                     :        (QAIT-A)                (3in)                   Array Induction Two Foot Resistivity A10
AT20            .ohm.m                                     :        (QAIT-A)                (3in)                   Array Induction Two Foot Resistivity A20
AT30            .ohm.m                                     :        (QAIT-A)                (3in)                   Array Induction Two Foot Resistivity A30
AT60            .ohm.m                                     :        (QAIT-A)                (3in)                   Array Induction Two Foot Resistivity A60
AT90            .ohm.m                                     :        (QAIT-A)                (3in)                   Array Induction Two Foot Resistivity A90
DRHOLS          .g/cm3                                     :        (QLDT-B)                (6in)                   Density Correction Long Spacing
PEF             .                                          :        (QLDT-B)                (6in)                   Photoelectric Factor
RHOB            .g/cm3                                     :        (QLDT-B)                (6in)                   Bulk Density
CALI            .in                                        :        (QLDT-B)                (6in)                   Caliper
TNRA            .                                          :        (QCNT)                  (6in)                   Thermal Neutron Ratio
CFTC            .1/s                                       :        (QCNT)                  (6in)                   Corrected Far Thermal Count Rate
CNTC            .1/s                                       :        (QCNT)                  (6in)                   Corrected Near Thermal Count Rate
NPOR            .m3/m3                                     :        (QCNT)                  (6in)                   Enhanced Thermal Neutron Porosity in Selected Lithology
GR              .gAPI                                      :        (QTGC-B)                (6in)                   Gamma Ray
#-------------------------------------------------------------
#            DEPT           BS         TENS         HTEN         AT10         AT20         AT30         AT60         AT90       DRHOLS          PEF         RHOB         CALI         TNRA         CFTC         CNTC         NPOR           GR 
#                   (Borehole)  (WLWorkflo)     (LEH-QT)     (QAIT-A)     (QAIT-A)     (QAIT-A)     (QAIT-A)     (QAIT-A)     (QLDT-B)     (QLDT-B)     (QLDT-B)     (QLDT-B)       (QCNT)       (QCNT)       (QCNT)       (QCNT)     (QTGC-B) 
#                         (RT)                                                                                                                                                                                                                 
#                        (6in)        (6in)        (6in)        (3in)        (3in)        (3in)        (3in)        (3in)        (6in)        (6in)        (6in)        (6in)        (6in)        (6in)        (6in)        (6in)        (6in) 
~ASCII
# ...
       2212.69560      6.12500   2129.66660   1094.09072      5.34160      5.02624      4.98569      4.89828      4.69560     -0.01926      4.66794      2.58391      6.21448      3.37020   1498.93400   5684.87600      0.18109    122.00120
       2212.84800      6.12500   2127.50012   1091.05985      4.98786      4.68754      4.66011      4.57176      4.43575     -0.03826      5.91604      2.56523      6.21448      3.54179   1490.48100   5776.05800      0.18778    125.64980
       2213.00040      6.12500   2126.24995   1094.75616      4.62044      4.37824      4.35455      4.23536      4.18134     -0.06073      6.76476      2.53623      6.20000      3.58568   1406.04200   5356.30300      0.20586    130.71730
       2213.15280      6.12500   2121.24998   1090.32068      4.20249      4.01490      3.98031      3.88894      3.84910     -0.06788      6.27069      2.53176      6.21448      3.83345   1342.70300   5283.31200      0.22568    135.37430
       2213.30520      6.12500   2110.33325   1084.77644      3.76897      3.63304      3.59323      3.51401      3.52284     -0.07063      5.59234      2.53944      6.21448      3.97608   1102.03000   5155.55200      0.22775    138.71120
       2213.45760      6.12500   2117.49994   1097.41722      3.40743      3.32169      3.28721      3.21232      3.22361     -0.06450      4.89642      2.56827      6.21448      3.97703   1173.80900   5014.12900      0.23572    141.88150
       2213.61000      6.12500   2115.00006   1098.96975      3.19087      3.10978      3.07217      3.00062      3.02173     -0.05473      5.25010      2.57962      6.22081      3.89700   1199.14600   4722.12100      0.25097    146.75100
       2213.76240      6.12500   2094.74995   1100.52206      3.09757      3.00681      2.94403      2.88399      2.90222     -0.04256      6.17282      2.58395      6.21448      3.89293   1085.14000   4795.13200      0.23778    151.64770
       2213.91480      6.12500   2111.00004   1103.62689      3.05235      2.95425      2.89577      2.81307      2.84802     -0.03958      6.97660      2.57590      6.22081      3.91821   1193.51500   5082.55400      0.21012    159.04320
       2214.06720      6.12500   2124.25005   1092.09487      3.00062      2.90724      2.84067      2.73914      2.75551     -0.03851      7.06321      2.56996      6.20632      4.02963   1227.29400   4933.51800      0.22814    164.53810
       2214.21960      6.12500   2130.24998   1100.30017      2.95113      2.84109      2.77439      2.67711      2.66702     -0.03739      6.78176      2.58272      6.20632      4.01296    996.48680   4763.18600      0.24241    171.26550
       2214.37200      6.12500   2117.99991   1109.09717      2.90356      2.78580      2.72042      2.61448      2.59274     -0.03956      7.14464      2.58503      6.20632      4.12486   1123.14400   4722.19200      0.25078    174.63910
       2214.52440      6.12500   2104.33333   1112.49763      2.84505      2.71399      2.66628      2.55471      2.52387     -0.05311      7.02631      2.56641      6.22081      3.95527   1059.80600   4644.57200      0.22860    176.15900
       2214.67680      6.12500   2115.75003   1114.05016      2.82266      2.70456      2.64933      2.51444      2.47892     -0.05021      6.97229      2.57109      6.20632      3.99161   1093.58800   4626.30900      0.23451    175.59300
       2214.82920      6.12500   2110.75005   1106.06629      2.80114      2.71843      2.65895      2.53001      2.46770     -0.04862      6.96389      2.58304      6.20632      4.04710   1013.36100   4379.95000      0.25265    169.84680
       2214.98160      6.12500   2118.50011   1106.28818      2.82929      2.71580      2.67877      2.53953      2.46073     -0.01458      6.44106      2.63202      6.22081      4.07543    988.02940   4507.68700      0.23678    166.51040
       2215.13400      6.12500   2126.99992   1112.71952      2.57773      2.47457      2.45146      2.31808      2.23419     -0.01129      6.87482      2.63612      6.22895      4.00161   1034.47300   4471.19700      0.23527    161.04390
       2215.28640      6.12500   2125.00002   1109.83657      2.32582      2.20191      2.17952      2.08781      2.02744     -0.00871      6.67127      2.62664      6.20000      4.06918   1030.26500   4206.56600      0.24791    161.89110
       2215.43880      6.12500   2109.25013   1095.64325      2.11915      2.03997      2.01971      1.96302      1.89581      0.00549      6.82749      2.64339      6.21448      3.98299    954.24770   4562.51200      0.20885    165.67400
       2215.59120      6.12500   2114.33328   1087.65939      1.98797      1.95544      1.93681      1.88805      1.81389      0.02088      7.54954      2.66160      6.21448      4.14971    996.47540   4028.63100      0.26247    172.42430
       2215.74360      6.12500   2120.50001   1073.90962      1.86489      1.85168      1.83902      1.80570      1.73634      0.00854      8.02236      2.64105      6.21448      4.27408    848.69050   3923.71100      0.28228    181.30760
       2215.89600      6.12500   2113.75013   1084.77644      1.74614      1.71390      1.71869      1.70080      1.64605      0.00452      7.82845      2.62351      6.20000      4.57722    814.92410   4224.81700      0.27681    189.87880
       2216.04840      6.12500   2099.49994   1090.76422      1.63105      1.57724      1.58349      1.57132      1.53890      0.00033      7.50339      2.60226      6.20000      4.65433    785.35490   3946.57000      0.31549    196.49470
       2216.20080      6.12500   2082.66669   1098.96975      1.50406      1.48626      1.47998      1.46751      1.43660     -0.01373      7.29404      2.56162      6.22081      4.44268    852.91420   4156.37900      0.28304    201.42080
       2216.35320      6.12500   2087.25010   1087.43773      1.48557      1.45667      1.44861      1.43900      1.45062     -0.00904      7.22752      2.56342      6.27237      4.20359    983.80440   4425.57400      0.23574    199.75280
       2216.50560      6.12500   2109.75010   1089.21192      1.52712      1.50514      1.49200      1.47988      1.53115      0.00704      8.16713      2.59597      6.20632      4.06020   1017.58600   4325.18900      0.23949    192.05770
       2216.65800      6.12500   2111.25025   1092.98196      1.62518      1.60984      1.59557      1.58710      1.61305      0.00628      7.80073      2.59375      6.22081      4.07250   1004.91600   4430.13700      0.25097    182.50830
       2216.81040      6.12500   2120.99999   1099.19141      1.70713      1.69379      1.67936      1.67719      1.69921      0.01658      8.20666      2.61988      6.20632      4.04610    971.13960   4407.31300      0.25881    172.07640
       2216.96280      6.12500   2114.00011   1112.71952      1.75870      1.75182      1.74297      1.75368      1.76801      0.01716      8.31983      2.63223      6.22081      4.02553   1131.60300   4713.00700      0.23592    168.49410
       2217.11520      6.12500   2124.25005   1109.83634      1.85913      1.85047      1.82555      1.84481      1.84800      0.00867      8.13302      2.63332      6.22081      3.97141   1165.36800   5059.81700      0.20169    170.23740
       2217.26760      6.12500   2127.24990   1107.32298      2.22950      2.24634      2.21988      2.27387      2.25633     -0.02333      7.46206      2.58722      6.20632      3.98894   1123.12300   4900.06700      0.20858    176.13600
       2217.42000      6.12500   2127.66670   1111.16698      2.72591      2.94052      2.92281      2.96837      2.94951     -0.02829      5.58472      2.55820      6.20632      4.07603   1075.28900   4539.55400      0.26423    180.68760
       2217.57240      6.12500   2127.74988   1116.04601      3.45188      3.67466      3.72398      3.83299      3.80732     -0.04665      5.37796      2.51588      6.22081      4.23818    886.69210   4100.11300      0.30609    179.69580
       2217.72480      6.12500   2121.49996   1107.61883      3.53658      3.60240      3.64543      3.71721      3.66052     -0.06078      5.41932      2.47512      6.20632      4.47534    966.92970   4726.69500      0.25556    175.21300
