~VERSION INFORMATION 
VERS  .    2.0                                     :CWLS Log ASCII Standard - VERSION 2.0
WRAP  .    NO                                      :One Line per Depth step
PROD  .    Schlumberger Technology Corp.           :LAS Producer
PROG  .    Horizon LASWriter 6.2.68624.3100        :LAS Program name and version
SOURCE.    AT-33-F section 6.125" Run 1/1/1-Log[3]/Up:Run&Pass Information
CREA  .    07/28/2016                              :LAS Creation date {MM/DD/YYYY}
#--------------------------------------------------
~WELL INFORMATION 
#MNEM           .UNIT                      DATA            :DESCRIPTION
#----            ------          --------------            -----------------------------
STRT            .m                   3247.79640            :START DEPTH
STOP            .m                   1513.78920            :STOP DEPTH
STEP            .m                      -0.1524            :STEP
NULL            .                       -999.25            :NULL VALUE
COMP            .                         PTTEP            :COMPANY
WELL            .                       AT-33-F            :WELL NAME
FLD             .                ARTHIT / Block: 15A       :FIELD NAME
RIGN            .                          T-17            :Rig Name
RIGTYP          .                Tender Assisted           :Rig Type
SON             .                    DGEY-00011            :Service Order Number
SRVC            .                  Schlumberger            :SERVICE COMPANY
DATE            .                    07/28/2016            :LOG DATE(Composite Date for Composite LAP) (MM/DD/YYYY)
CLAB            .                     Rig Name:            :County Label
CNTY            .                          T-17            :COUNTY
SLAB            .                      Country:            :State/Province Label
STAT            .                      Thailand            :STATE or PROVINCE
PROV            .                      Thailand            :STATE or PROVINCE
CTRY            .                      Thailand            :COUNTRY
CONT_REGION     .                          Asia            :Continent Region
SECT            .                                          :Section
TOWN            .                                          :Township
RANG            .                                          :Range
API             .                                          :API NUMBER
UWI             .                                          :UNIQUE WELL ID
LUL             .                      Thailand            :Logging Unit Location
LUN             .                          7003            :Logging Unit Number
LOC             .                Gulf of Thailand          :FIELD LOCATION
FL1             .                X: 890 685.860 mE (DATUM: INDIAN 1975):Field Location Line 1
FL2             .                Y: 893 515.640 mN (UTM ZONE 47N):Field Location Line 2
LATI            .deg             8° 4' 7.168" N            :LATITUDE
LONG            .deg             102° 32' 38.971" E        :LONGITUDE
PDAT            .                           MSL            :Local Permanent Datum
LMF             .                            DF            :Logging Measured From
APD             .m                     29.00000            :Elevation of Depth Reference (LMF) Above Permanent Datum
EPD             .m                      0.00000            :Elevation of Permanent Datum (PDAT) above Mean Sea Level
EKB             .m                     29.00000            :Elevation of Kelly Bushing Above Permanent Datum
EDF             .m                     29.00000            :Elevation of Drill Floor Above Permanent Datum
EGL             .m                    -77.08000            :Elevation of Ground Level Above Permanent Datum
ECF             .m                      -999.25            :Elevation of Casing Flange above Permanent Datum
#--------------------------------------------------
~CURVE INFORMATION
#MNEM           .UNIT                  API CODE            :DESCRIPTION
#----            ------          --------------            -----------------------------
DEPT            .m                                         :                                                        Depth Index
BS              .in                                        :(RT)    (Borehole)              (6in)                   Bit Size
TENS            .lbf                                       :        (WLWorkflow)            (6in)                   Cable Tension
HTEN            .lbf                                       :        (LEH-QT)                (6in)                   Head Tension
AT10            .ohm.m                                     :        (QAIT-A)                (3in)                   Array Induction Two Foot Resistivity A10
AT20            .ohm.m                                     :        (QAIT-A)                (3in)                   Array Induction Two Foot Resistivity A20
AT30            .ohm.m                                     :        (QAIT-A)                (3in)                   Array Induction Two Foot Resistivity A30
AT60            .ohm.m                                     :        (QAIT-A)                (3in)                   Array Induction Two Foot Resistivity A60
AT90            .ohm.m                                     :        (QAIT-A)                (3in)                   Array Induction Two Foot Resistivity A90
DRHOLS          .g/cm3                                     :        (QLDT-B)                (6in)                   Density Correction Long Spacing
PEF             .                                          :        (QLDT-B)                (6in)                   Photoelectric Factor
RHOB            .g/cm3                                     :        (QLDT-B)                (6in)                   Bulk Density
CALI            .in                                        :        (QLDT-B)                (6in)                   Caliper
TNRA            .                                          :        (QCNT)                  (6in)                   Thermal Neutron Ratio
CFTC            .1/s                                       :        (QCNT)                  (6in)                   Corrected Far Thermal Count Rate
CNTC            .1/s                                       :        (QCNT)                  (6in)                   Corrected Near Thermal Count Rate
NPOR            .m3/m3                                     :        (QCNT)                  (6in)                   Enhanced Thermal Neutron Porosity in Selected Lithology
GR              .gAPI                                      :        (QTGC-B)                (6in)                   Gamma Ray
#-------------------------------------------------------------
#            DEPT           BS         TENS         HTEN         AT10         AT20         AT30         AT60         AT90       DRHOLS          PEF         RHOB         CALI         TNRA         CFTC         CNTC         NPOR           GR 
#                   (Borehole)  (WLWorkflo)     (LEH-QT)     (QAIT-A)     (QAIT-A)     (QAIT-A)     (QAIT-A)     (QAIT-A)     (QLDT-B)     (QLDT-B)     (QLDT-B)     (QLDT-B)       (QCNT)       (QCNT)       (QCNT)       (QCNT)     (QTGC-B) 
#                         (RT)                                                                                                                                                                                                                 
#                        (6in)        (6in)        (6in)        (3in)        (3in)        (3in)        (3in)        (3in)        (6in)        (6in)        (6in)        (6in)        (6in)        (6in)        (6in)        (6in)        (6in) 
~ASCII
# ...
       2330.65320      6.12500   5720.57155   1289.35910      2.37064      2.28262      2.23735      2.20940      2.15698     -0.05096      5.97796      2.60856      6.20632      3.78265   1243.56100   5246.70200      0.21716    144.46840
       2330.50080      6.12500   5748.12413   1301.88905      2.39685      2.30829      2.25911      2.23108      2.17431     -0.05507      5.75348      2.60307      6.21357      3.73066   1296.23000   5266.27600      0.21994    143.15740
       2330.34840      6.12500   5766.42807   1302.14263      2.40296      2.30504      2.25094      2.21310      2.17527     -0.05463      5.84372      2.59940      6.21357      3.71033   1331.82000   5071.03300      0.22631    146.86110
       2330.19600      6.12500   5789.85766   1310.31624      2.40410      2.29629      2.24932      2.21933      2.17764     -0.04799      5.75245      2.61158      6.21357      3.66576   1273.00600   5287.07700      0.21375    151.37590
       2330.04360      6.12500   5787.00034   1296.43990      2.42117      2.31624      2.27082      2.23304      2.20973     -0.05718      5.69551      2.59442      6.19183      3.70957   1358.35300   5322.47200      0.20872    151.53630
       2329.89120      6.12500   5789.50022   1280.93191      2.44863      2.33358      2.29494      2.24875      2.22573     -0.06085      5.41290      2.59288      6.21357      3.68934   1385.02300   5470.23800      0.20361    147.69520
       2329.73880      6.12500   5773.14312   1280.04481      2.42834      2.31387      2.28082      2.23621      2.21040     -0.06161      6.21378      2.59776      6.20632      3.65127   1300.45200   5315.80100      0.21066    148.30010
       2329.58640      6.12500   5716.28669   1272.99548      2.40426      2.29605      2.25915      2.22126      2.18481     -0.07053      6.25204      2.59074      6.20632      3.62452   1396.96900   5301.44500      0.20957    150.72490
       2329.43400      6.12500   5702.12597   1275.94205      2.43497      2.32512      2.28974      2.26030      2.21402     -0.06825      6.19710      2.58963      6.20632      3.60026   1384.89700   5349.69400      0.20400    149.11890
       2329.28160      6.12500   5713.57099   1282.04067      2.46799      2.36566      2.32461      2.28226      2.24865     -0.05694      5.89864      2.59815      6.20949      3.60363   1307.69800   5242.58800      0.21357    147.58390
       2329.12920      6.12500   5730.71492   1298.59425      2.45443      2.35994      2.32194      2.28334      2.24552     -0.05046      5.51063      2.59445      6.20949      3.67537   1412.47900   5375.76400      0.21219    149.95260
       2328.97680      6.12500   5767.99949   1315.74964      2.42281      2.33822      2.29711      2.26285      2.23218     -0.04219      6.22546      2.60103      6.20224      3.69622   1346.30100   5513.58100      0.20623    154.75810
       2328.82440      6.12500   5800.00104   1307.08483      2.47203      2.38440      2.33974      2.29762      2.27301     -0.03578      6.51764      2.60413      6.20632      3.74303   1332.11600   5430.46200      0.21601    152.97930
       2328.67200      6.12500   5817.00109   1323.84434      2.55114      2.45580      2.41242      2.36644      2.34990     -0.03085      7.07749      2.61649      6.20632      3.64003   1389.71500   5499.94400      0.20957    144.72050
       2328.51960      6.12500   5816.85722   1323.55906      2.59140      2.48462      2.43976      2.39545      2.38641     -0.03229      6.62392      2.61519      6.20632      3.50829   1431.35300   5384.16900      0.20336    139.50520
       2328.36720      6.12500   5817.74971   1313.64296      2.64043      2.50317      2.47242      2.42642      2.42540     -0.02891      6.11071      2.62931      6.20632      3.44921   1522.59300   5556.92900      0.18669    135.85180
       2328.21480      6.12500   5783.14262   1311.64688      2.67585      2.55822      2.53686      2.49000      2.50196     -0.04950      5.62445      2.59843      6.21357      3.49519   1486.23100   5597.36400      0.18847    133.94290
       2328.06240      6.12500   5785.42893   1321.53150      2.76975      2.63623      2.62745      2.57756      2.59509     -0.06359      5.65048      2.58231      6.21357      3.52101   1382.48900   5406.37200      0.21081    131.85460
       2327.91000      6.12500   5755.00104   1330.94088      2.86975      2.73027      2.71547      2.66266      2.66735     -0.05948      5.66958      2.58790      6.22081      3.52842   1479.89600   5524.92600      0.20623    133.95470
       2327.75760      6.12500   5805.00079   1329.13522      2.96590      2.82091      2.79777      2.73261      2.73782     -0.05553      5.69544      2.60581      6.22081      3.45728   1524.96800   5779.85600      0.18566    136.83470
       2327.60520      6.12500   5834.00115   1333.26945      3.12325      2.96188      2.93954      2.87016      2.86200     -0.05595      5.47200      2.59625      6.21357      3.38639   1568.26800   5771.35500      0.18865    134.76390
       2327.45280      6.12500   5837.49917   1333.93489      3.32989      3.14784      3.09202      3.00873      2.99452     -0.03375      5.25641      2.61325      6.22081      3.37620   1672.01000   5858.01800      0.19117    128.65260
       2327.30040      6.12500   5852.28486   1328.05793      3.47119      3.29715      3.22008      3.12213      3.08563     -0.01689      5.59157      2.62893      6.20632      3.34375   1628.57500   6118.77900      0.16945    124.95900
       2327.14800      6.12500   5827.37603   1313.54786      3.22881      3.09242      3.04402      2.94107      2.90177     -0.03805      6.51281      2.59374      6.22081      3.35769   1727.51300   6175.72900      0.17043    132.76670
       2326.99560      6.12500   5795.42843   1302.99803      2.96037      2.84987      2.79497      2.73211      2.71628     -0.03927      6.84110      2.59004      6.21357      3.42524   1632.08500   5791.88800      0.19416    142.37100
       2326.84320      6.12500   5785.99994   1290.80057      2.78028      2.68879      2.63129      2.57699      2.55851     -0.04941      6.73587      2.58345      6.21357      3.56414   1469.34000   5842.11000      0.19972    144.78620
       2326.69080      6.12500   5743.28624   1301.25531      2.82446      2.71733      2.67474      2.61092      2.60720     -0.05852      6.56066      2.58701      6.20632      3.62738   1399.68400   5633.81200      0.21026    139.13260
       2326.53840      6.12500   5735.62475   1312.20126      2.90180      2.78269      2.74605      2.68799      2.69700     -0.05572      6.63095      2.59095      6.21357      3.55112   1454.86200   5461.11100      0.21832    137.54850
       2326.38600      6.12500   5761.25072   1303.21969      3.00300      2.84855      2.81392      2.74739      2.74864     -0.04204      7.02571      2.61521      6.21357      3.43502   1494.67500   5573.48300      0.20531    140.63990
       2326.23360      6.12500   5783.57200   1293.79458      3.11552      2.92630      2.90875      2.83506      2.84807     -0.02940      7.20701      2.62277      6.20632      3.47427   1594.04200   5816.36300      0.19047    140.83210
       2326.08120      6.12500   5778.85776   1296.31311      3.24224      3.04994      3.02372      2.93983      2.96535     -0.02228      7.26881      2.62961      6.21357      3.40480   1589.98400   6170.56100      0.17457    137.15740
       2325.92880      6.12500   5748.37592   1287.58490      3.38280      3.21639      3.16734      3.07346      3.09536     -0.02314      6.70850      2.61529      6.21357      3.34466   1699.45400   5954.47900      0.18374    134.31330
       2325.77640      6.12500   5727.85760   1292.24227      3.48966      3.33028      3.26514      3.16641      3.19032     -0.02775      6.50456      2.61336      6.20632      3.29043   1780.57600   6150.02500      0.16841    135.63050
       2325.62400      6.12500   5736.24972   1289.35910      3.39658      3.23327      3.18608      3.07285      3.10234     -0.02780      6.37437      2.61212      6.20632      3.28977   1642.45300   6085.51600      0.17104    138.24020
