~VERSION INFORMATION 
VERS  .    2.0                                     :CWLS Log ASCII Standard - VERSION 2.0
WRAP  .    NO                                      :One Line per Depth step
PROD  .    Schlumberger Technology Corp.           :LAS Producer
PROG  .    Horizon LASWriter 6.2.68624.3100        :LAS Program name and version
SOURCE.    AT-33-F section 6.125" Run 1/1/1-Log[2]/Down:Run&Pass Information
CREA  .    07/28/2016                              :LAS Creation date {MM/DD/YYYY}
#--------------------------------------------------
~WELL INFORMATION 
#MNEM           .UNIT                      DATA            :DESCRIPTION
#----            ------          --------------            -----------------------------
STRT            .m                   1518.36120            :START DEPTH
STOP            .m                   3242.61480            :STOP DEPTH
STEP            .m                       0.1524            :STEP
NULL            .                       -999.25            :NULL VALUE
COMP            .                         PTTEP            :COMPANY
WELL            .                       AT-33-F            :WELL NAME
FLD             .                ARTHIT / Block: 15A       :FIELD NAME
RIGN            .                          T-17            :Rig Name
RIGTYP          .                Tender Assisted           :Rig Type
SON             .                    DGEY-00011            :Service Order Number
SRVC            .                  Schlumberger            :SERVICE COMPANY
DATE            .                    07/28/2016            :LOG DATE(Composite Date for Composite LAP) (MM/DD/YYYY)
CLAB            .                     Rig Name:            :County Label
CNTY            .                          T-17            :COUNTY
SLAB            .                      Country:            :State/Province Label
STAT            .                      Thailand            :STATE or PROVINCE
PROV            .                      Thailand            :STATE or PROVINCE
CTRY            .                      Thailand            :COUNTRY
CONT_REGION     .                          Asia            :Continent Region
SECT            .                                          :Section
TOWN            .                                          :Township
RANG            .                                          :Range
API             .                                          :API NUMBER
UWI             .                                          :UNIQUE WELL ID
LUL             .                      Thailand            :Logging Unit Location
LUN             .                          7003            :Logging Unit Number
LOC             .                Gulf of Thailand          :FIELD LOCATION
FL1             .                X: 890 685.860 mE (DATUM: INDIAN 1975):Field Location Line 1
FL2             .                Y: 893 515.640 mN (UTM ZONE 47N):Field Location Line 2
LATI            .deg             8° 4' 7.168" N            :LATITUDE
LONG            .deg             102° 32' 38.971" E        :LONGITUDE
PDAT            .                           MSL            :Local Permanent Datum
LMF             .                            DF            :Logging Measured From
APD             .m                     29.00000            :Elevation of Depth Reference (LMF) Above Permanent Datum
EPD             .m                      0.00000            :Elevation of Permanent Datum (PDAT) above Mean Sea Level
EKB             .m                     29.00000            :Elevation of Kelly Bushing Above Permanent Datum
EDF             .m                     29.00000            :Elevation of Drill Floor Above Permanent Datum
EGL             .m                    -77.08000            :Elevation of Ground Level Above Permanent Datum
ECF             .m                      -999.25            :Elevation of Casing Flange above Permanent Datum
#--------------------------------------------------
~CURVE INFORMATION
#MNEM           .UNIT                  API CODE            :DESCRIPTION
#----            ------          --------------            -----------------------------
DEPT            .m                                         :                                                        Depth Index
BS              .in                                        :(RT)    (Borehole)              (6in)                   Bit Size
TENS            .lbf                                       :        (WLWorkflow)            (6in)                   Cable Tension
HTEN            .lbf                                       :        (LEH-QT)                (6in)                   Head Tension
AT10            .ohm.m                                     :        (QAIT-A)                (3in)                   Array Induction Two Foot Resistivity A10
AT20            .ohm.m                                     :        (QAIT-A)                (3in)                   Array Induction Two Foot Resistivity A20
AT30            .ohm.m                                     :        (QAIT-A)                (3in)                   Array Induction Two Foot Resistivity A30
AT60            .ohm.m                                     :        (QAIT-A)                (3in)                   Array Induction Two Foot Resistivity A60
AT90            .ohm.m                                     :        (QAIT-A)                (3in)                   Array Induction Two Foot Resistivity A90
DRHOLS          .g/cm3                                     :        (QLDT-B)                (6in)                   Density Correction Long Spacing
PEF             .                                          :        (QLDT-B)                (6in)                   Photoelectric Factor
RHOB            .g/cm3                                     :        (QLDT-B)                (6in)                   Bulk Density
CALI            .in                                        :        (QLDT-B)                (6in)                   Caliper
TNRA            .                                          :        (QCNT)                  (6in)                   Thermal Neutron Ratio
CFTC            .1/s                                       :        (QCNT)                  (6in)                   Corrected Far Thermal Count Rate
CNTC            .1/s                                       :        (QCNT)                  (6in)                   Corrected Near Thermal Count Rate
NPOR            .m3/m3                                     :        (QCNT)                  (6in)                   Enhanced Thermal Neutron Porosity in Selected Lithology
GR              .gAPI                                      :        (QTGC-B)                (6in)                   Gamma Ray
#-------------------------------------------------------------
#            DEPT           BS         TENS         HTEN         AT10         AT20         AT30         AT60         AT90       DRHOLS          PEF         RHOB         CALI         TNRA         CFTC         CNTC         NPOR           GR 
#                   (Borehole)  (WLWorkflo)     (LEH-QT)     (QAIT-A)     (QAIT-A)     (QAIT-A)     (QAIT-A)     (QAIT-A)     (QLDT-B)     (QLDT-B)     (QLDT-B)     (QLDT-B)       (QCNT)       (QCNT)       (QCNT)       (QCNT)     (QTGC-B) 
#                         (RT)                                                                                                                                                                                                                 
#                        (6in)        (6in)        (6in)        (3in)        (3in)        (3in)        (3in)        (3in)        (6in)        (6in)        (6in)        (6in)        (6in)        (6in)        (6in)        (6in)        (6in) 
~ASCII
# ...
       1989.88680      6.12500   1953.50024   1062.59949      2.07026      2.05972      2.06665      2.09915      2.07326     -0.00972      7.35664      2.61524      6.22895      4.34413   1076.71400   4757.10400      0.24036    143.74860
       1990.03920      6.12500   1958.00002   1067.70018      2.16120      2.15626      2.18439      2.21792      2.22113     -0.02583      6.55300      2.57039      6.21448      4.19712   1000.69400   4763.26900      0.24231    142.41260
       1990.19160      6.12500   1956.25010   1066.14765      2.19420      2.19988      2.21065      2.23109      2.25566     -0.02397      5.99369      2.55615      6.25789      4.16751    996.47330   4407.31300      0.26305    138.27890
       1990.34400      6.12500   1953.66683   1070.58313      2.15629      2.15763      2.15994      2.17571      2.20912     -0.03215      6.17784      2.53128      6.21448      4.27101   1030.25000   4452.94800      0.27793    134.32220
       1990.49640      6.12500   1961.00009   1075.01861      2.16057      2.15332      2.15391      2.19228      2.24451     -0.02617      6.29128      2.54560      6.22895      4.42235    890.92820   4539.62400      0.27021    134.80080
       1990.64880      6.12500   1962.25003   1074.57506      2.23622      2.22080      2.21668      2.26538      2.34428     -0.03262      6.20777      2.55584      6.21448      4.58040    988.03120   4854.51600      0.26867    135.96950
       1990.80120      6.12500   1954.74995   1073.02275      2.34614      2.34957      2.33728      2.39328      2.48107     -0.03823      5.10281      2.54364      6.22895      4.22135    971.12170   4694.76200      0.26253    140.25060
       1990.95360      6.12500   1959.33336   1067.70018      2.53975      2.57594      2.54638      2.60808      2.67713     -0.06407      4.90575      2.48061      6.22895      3.93988   1216.05000   4781.36500      0.24644    140.21630
       1991.10600      6.12500   1967.00002   1050.18037      2.77094      2.79653      2.76826      2.81292      2.87069     -0.06887      4.93145      2.44949      6.21448      3.79643   1321.59300   5287.94200      0.20294    138.58410
       1991.25840      6.12500   1979.25008   1049.07138      2.98812      3.04335      3.00131      3.04653      3.09011     -0.06469      4.78458      2.44729      6.21448      3.84526   1254.03400   5479.50000      0.20572    134.04980
       1991.41080      6.12500   1961.50029   1058.82944      3.32013      3.35978      3.30132      3.35023      3.35100     -0.04987      5.18020      2.46608      6.21448      3.88908   1317.37300   5388.23600      0.22811    130.01430
       1991.56320      6.12500   1954.49997   1063.26470      3.61940      3.61620      3.57291      3.64154      3.57671     -0.05015      4.35761      2.46463      6.22895      3.73703   1351.16500   5598.12200      0.20742    128.19630
       1991.71560      6.12500   1957.00007   1061.78635      3.79012      3.75822      3.68772      3.72216      3.66355     -0.06210      4.24688      2.43997      6.21448      3.83531   1444.03900   5598.20400      0.21763    128.07660
       1991.86800      6.12500   1949.25000   1063.93013      3.92515      3.86296      3.80483      3.81973      3.73653     -0.05538      4.21361      2.43922      6.21448      3.75432   1266.70400   5584.42100      0.21145    127.03230
       1992.02040      6.12500   1947.00012   1062.37760      4.03062      3.94420      3.91096      3.87908      3.85726     -0.04728      4.31052      2.43425      6.22895      3.74314   1477.81800   5734.99600      0.20736    122.30720
       1992.17280      6.12500   1947.74985   1068.36539      3.97508      3.90164      3.83549      3.84149      3.76553     -0.04565      4.91803      2.43715      6.21448      3.61048   1439.81700   5529.67200      0.20141    115.28990
       1992.32520      6.12500   1953.33321   1072.35732      3.84459      3.71615      3.67021      3.66057      3.58547     -0.03708      5.07615      2.45230      6.22895      3.68902   1448.28500   5762.35500      0.19673    111.60260
       1992.47760      6.12500   1962.00004   1079.67575      3.57449      3.41622      3.38940      3.39226      3.31799     -0.00553      6.05129      2.50652      6.21448      3.57579   1317.37200   5447.63800      0.19887    113.52480
       1992.63000      6.12500   1966.25006   1088.76837      3.33799      3.14040      3.12966      3.13828      3.07224      0.00359      6.45646      2.53118      6.22895      3.48188   1553.81700   5397.37500      0.19466    119.44380
       1992.78240      6.12500   1979.49985   1089.65524      3.23350      3.08519      3.08037      3.07859      3.00742      0.00147      6.11600      2.54597      6.21448      3.48293   1486.29200   5461.24100      0.18097    124.74890
       1992.93480      6.12500   1992.66668   1088.32482      3.23544      3.14053      3.12580      3.12196      3.03220      0.00230      6.21114      2.56613      6.21448      3.80709   1292.03800   5347.28300      0.20902    129.82710
       1993.08720      6.12500   1991.24993   1090.76422      3.22176      3.13767      3.11391      3.11123      3.02063     -0.01150      6.16574      2.56411      6.22895      4.12419   1152.69800   5214.87600      0.23466    133.00270
       1993.23960      6.12500   1983.99985   1086.99418      3.19137      3.11689      3.09609      3.08115      2.99470     -0.03123      6.77142      2.54120      6.22895      4.46031   1080.93500   5082.55300      0.24602    134.16920
       1993.39200      6.12500   1982.24993   1067.99602      2.99797      2.88843      2.90319      2.89649      2.78861     -0.04098      6.27722      2.53976      6.22895      4.74504    886.69260   4635.51400      0.27348    134.01690
       1993.54440      6.12500   1975.66685   1068.80893      2.74363      2.61455      2.61450      2.59691      2.57902     -0.04152      5.31969      2.52662      6.21448      5.28138    726.24150   3955.64100      0.37772    136.29480
       1993.69680      6.12500   1976.74976   1068.14372      2.50380      2.42658      2.39620      2.36108      2.36365     -0.01223      4.78593      2.51519      6.21448      5.57669    527.79160   3399.01500      0.45707    143.03910
       1993.84920      6.12500   1959.50017   1061.71239      2.47915      2.40737      2.37752      2.34411      2.41206      0.00653      5.06571      2.45164      6.21448      5.63013    565.80240   3499.38900      0.41890    157.31570
       1994.00160      6.12500   1961.00009   1059.49465      2.47369      2.43895      2.41691      2.40219      2.44108     -0.01062      5.33304      2.34386      6.22895      5.32489    602.38870   3385.38000      0.35330    174.28570
       1994.15400      6.12500   1958.99997   1051.06746      2.50268      2.44788      2.42514      2.42295      2.41649     -0.00983      5.32241      2.26940      6.21448      5.19793    631.66280   3443.12600      0.32706    191.70690
       1994.30640      6.12500   1946.74990   1060.16008      2.55125      2.41569      2.40854      2.41270      2.40412      0.00402      4.76202      2.26148      6.21448      5.13337    578.46160   3339.70800      0.29776    205.70150
       1994.45880      6.12500   1944.99999   1061.71216      2.57181      2.40453      2.42575      2.43134      2.42521     -0.00490      5.25805      2.25900      6.21448      5.20905    574.23820   3107.02600      0.35503    214.09670
       1994.61120      6.12500   1949.25000   1064.15179      2.64454      2.57254      2.55685      2.55187      2.49607     -0.03311      4.92855      2.19571      6.20000      5.71244    456.01760   2597.55000      0.47030    221.03780
       1994.76360      6.12500   1965.50009   1063.93013      2.91389      2.91972      2.95182      2.92288      2.92777     -0.02406      4.80931      2.12123      6.21448      5.88976    401.12310   2970.18700      0.45398    225.83710
       1994.91600      6.12500   1975.00007   1070.13958      3.56750      3.75061      3.76868      3.64664      3.63589     -0.02642      4.09879      2.03804      6.21448      5.84824    485.56850   2906.27900      0.41881    228.46430
