~VERSION INFORMATION 
VERS  .    2.0                                     :CWLS Log ASCII Standard - VERSION 2.0
WRAP  .    NO                                      :One Line per Depth step
PROD  .    Schlumberger Technology Corp.           :LAS Producer
PROG  .    Horizon LASWriter 6.2.68624.3100        :LAS Program name and version
SOURCE.    AT-33-F section 6.125" Run 1/1/1-Log[2]/Down:Run&Pass Information
CREA  .    07/28/2016                              :LAS Creation date {MM/DD/YYYY}
#--------------------------------------------------
~WELL INFORMATION 
#MNEM           .UNIT                      DATA            :DESCRIPTION
#----            ------          --------------            -----------------------------
STRT            .m                   1518.36120            :START DEPTH
STOP            .m                   3242.61480            :STOP DEPTH
STEP            .m                       0.1524            :STEP
NULL            .                       -999.25            :NULL VALUE
COMP            .                         PTTEP            :COMPANY
WELL            .                       AT-33-F            :WELL NAME
FLD             .                ARTHIT / Block: 15A       :FIELD NAME
RIGN            .                          T-17            :Rig Name
RIGTYP          .                Tender Assisted           :Rig Type
SON             .                    DGEY-00011            :Service Order Number
SRVC            .                  Schlumberger            :SERVICE COMPANY
DATE            .                    07/28/2016            :LOG DATE(Composite Date for Composite LAP) (MM/DD/YYYY)
CLAB            .                     Rig Name:            :County Label
CNTY            .                          T-17            :COUNTY
SLAB            .                      Country:            :State/Province Label
STAT            .                      Thailand            :STATE or PROVINCE
PROV            .                      Thailand            :STATE or PROVINCE
CTRY            .                      Thailand            :COUNTRY
CONT_REGION     .                          Asia            :Continent Region
SECT            .                                          :Section
TOWN            .                                          :Township
RANG            .                                          :Range
API             .                                          :API NUMBER
UWI             .                                          :UNIQUE WELL ID
LUL             .                      Thailand            :Logging Unit Location
LUN             .                          7003            :Logging Unit Number
LOC             .                Gulf of Thailand          :FIELD LOCATION
FL1             .                X: 890 685.860 mE (DATUM: INDIAN 1975):Field Location Line 1
FL2             .                Y: 893 515.640 mN (UTM ZONE 47N):Field Location Line 2
LATI            .deg             8° 4' 7.168" N            :LATITUDE
LONG            .deg             102° 32' 38.971" E        :LONGITUDE
PDAT            .                           MSL            :Local Permanent Datum
LMF             .                            DF            :Logging Measured From
APD             .m                     29.00000            :Elevation of Depth Reference (LMF) Above Permanent Datum
EPD             .m                      0.00000            :Elevation of Permanent Datum (PDAT) above Mean Sea Level
EKB             .m                     29.00000            :Elevation of Kelly Bushing Above Permanent Datum
EDF             .m                     29.00000            :Elevation of Drill Floor Above Permanent Datum
EGL             .m                    -77.08000            :Elevation of Ground Level Above Permanent Datum
ECF             .m                      -999.25            :Elevation of Casing Flange above Permanent Datum
#--------------------------------------------------
~CURVE INFORMATION
#MNEM           .UNIT                  API CODE            :DESCRIPTION
#----            ------          --------------            -----------------------------
DEPT            .m                                         :                                                        Depth Index
BS              .in                                        :(RT)    (Borehole)              (6in)                   Bit Size
TENS            .lbf                                       :        (WLWorkflow)            (6in)                   Cable Tension
HTEN            .lbf                                       :        (LEH-QT)                (6in)                   Head Tension
AT10            .ohm.m                                     :        (QAIT-A)                (3in)                   Array Induction Two Foot Resistivity A10
AT20            .ohm.m                                     :        (QAIT-A)                (3in)                   Array Induction Two Foot Resistivity A20
AT30            .ohm.m                                     :        (QAIT-A)                (3in)                   Array Induction Two Foot Resistivity A30
AT60            .ohm.m                                     :        (QAIT-A)                (3in)                   Array Induction Two Foot Resistivity A60
AT90            .ohm.m                                     :        (QAIT-A)                (3in)                   Array Induction Two Foot Resistivity A90
DRHOLS          .g/cm3                                     :        (QLDT-B)                (6in)                   Density Correction Long Spacing
PEF             .                                          :        (QLDT-B)                (6in)                   Photoelectric Factor
RHOB            .g/cm3                                     :        (QLDT-B)                (6in)                   Bulk Density
CALI            .in                                        :        (QLDT-B)                (6in)                   Caliper
TNRA            .                                          :        (QCNT)                  (6in)                   Thermal Neutron Ratio
CFTC            .1/s                                       :        (QCNT)                  (6in)                   Corrected Far Thermal Count Rate
CNTC            .1/s                                       :        (QCNT)                  (6in)                   Corrected Near Thermal Count Rate
NPOR            .m3/m3                                     :        (QCNT)                  (6in)                   Enhanced Thermal Neutron Porosity in Selected Lithology
GR              .gAPI                                      :        (QTGC-B)                (6in)                   Gamma Ray
#-------------------------------------------------------------
#            DEPT           BS         TENS         HTEN         AT10         AT20         AT30         AT60         AT90       DRHOLS          PEF         RHOB         CALI         TNRA         CFTC         CNTC         NPOR           GR 
#                   (Borehole)  (WLWorkflo)     (LEH-QT)     (QAIT-A)     (QAIT-A)     (QAIT-A)     (QAIT-A)     (QAIT-A)     (QLDT-B)     (QLDT-B)     (QLDT-B)     (QLDT-B)       (QCNT)       (QCNT)       (QCNT)       (QCNT)     (QTGC-B) 
#                         (RT)                                                                                                                                                                                                                 
#                        (6in)        (6in)        (6in)        (3in)        (3in)        (3in)        (3in)        (3in)        (6in)        (6in)        (6in)        (6in)        (6in)        (6in)        (6in)        (6in)        (6in) 
~ASCII
# ...
       3109.11240      6.12500   2600.99901   1170.37964     23.05727     16.99720     15.84214     14.39112     14.86749     -0.07225      4.00969      2.29747      6.23530      2.99764   2427.84400   8212.40500      0.17378     52.88335
       3109.26480      6.12500   2629.66664   1175.25867     23.07285     16.97752     15.75929     14.24960     14.82060     -0.05794      4.02443      2.32024      6.22081      2.98565   2609.36800   8248.88300      0.15764     52.88425
       3109.41720      6.12500   2647.75027   1181.24623     23.13379     16.98300     15.75999     14.31325     14.74546     -0.04669      3.93019      2.34081      6.22081      2.80591   2689.62700   8422.15700      0.13801     51.67450
       3109.56960      6.12500   2661.00051   1178.36350     23.52208     17.29051     16.01736     14.44486     14.88632     -0.04742      3.70912      2.33235      6.23530      2.74909   2748.74800   7696.82900      0.15844     48.77597
       3109.72200      6.12500   2679.99912   1183.68585     23.76156     17.33730     16.02148     14.47895     14.89354     -0.05271      3.49407      2.33116      6.22081      2.65659   2655.80700   7906.71900      0.14416     50.21045
       3109.87440      6.12500   2697.99957   1190.33885     23.93518     17.32244     15.99713     14.47721     14.80427     -0.04994      3.27550      2.34467      6.22081      2.72216   2837.40900   8034.33200      0.13379     54.00972
       3110.02680      6.12500   2708.25086   1187.01235     24.21592     17.41613     16.05824     14.54424     14.81855     -0.05221      3.40749      2.34733      6.22081      2.77112   2689.63500   8102.88600      0.14663     59.78892
       3110.17920      6.12500   2706.49959   1196.32664     24.85192     18.00447     16.48313     14.83190     15.06609     -0.04421      3.77504      2.36651      6.23530      2.92840   2499.62300   7838.28200      0.17283     63.34500
       3110.33160      6.12500   2708.66675   1200.09668     25.69866     18.57963     16.93500     15.31346     15.42064     -0.05857      3.83051      2.34414      6.22081      2.93421   2520.69700   8422.25700      0.15640     63.79420
       3110.48400      6.12500   2713.50015   1198.98792     26.08558     19.04158     17.38314     15.68428     15.72914     -0.05080      3.71693      2.34209      6.22081      2.96526   2736.08000   8294.38800      0.16115     64.73727
       3110.63640      6.12500   2700.49944   1188.78632     26.07932     18.85437     17.21346     15.67705     15.53549     -0.05749      3.47580      2.32409      6.22081      2.91377   2600.95900   8417.71500      0.15845     65.06719
       3110.78880      6.12500   2702.74978   1180.80290     25.88733     18.70403     17.02382     15.46337     15.45365     -0.05540      3.54315      2.32914      6.22081      3.02362   2645.99700   8399.42800      0.17037     65.76131
       3110.94120      6.12500   2708.33404   1181.91166     25.58264     18.58257     16.91846     15.40535     15.38557     -0.05564      3.72783      2.32944      6.23530      2.91894   2440.50900   8267.14900      0.15997     63.58505
       3111.09360      6.12500   2697.99957   1176.14554     25.28344     18.45712     16.89470     15.47978     15.42968     -0.05343      3.56040      2.33424      6.22081      2.84734   2913.37100   8440.50600      0.15380     57.24147
       3111.24600      6.12500   2672.49949   1169.04877     25.19784     18.34820     16.79183     15.55694     15.46426     -0.04978      3.69103      2.33910      6.22081      2.83624   2744.52600   8075.39700      0.16256     50.34444
       3111.39840      6.12500   2651.66645   1165.05706     25.18565     18.23622     16.77198     15.69566     15.48855     -0.04361      3.67971      2.35218      6.23530      2.84532   2575.62300   8632.14800      0.14335     45.95718
       3111.55080      6.12500   2636.25130   1164.16996     25.13538     18.19983     16.75153     15.81327     15.57427     -0.04929      3.35443      2.33922      6.22081      2.86809   2896.53000   8477.00500      0.14455     46.91722
       3111.70320      6.12500   2656.00076   1157.88655     25.35630     18.47947     16.84632     15.94899     15.65172     -0.04977      3.81911      2.35323      6.22081      2.75744   2710.69800   8175.90300      0.15518     52.11580
       3111.85560      6.12500   2641.25105   1151.52918     25.41728     18.35436     16.77478     15.89736     15.60788     -0.03733      3.49360      2.37442      6.22806      2.84620   2696.66800   8070.82500      0.16091     56.37637
       3112.00800      6.12500   2638.33303   1157.51697     25.36064     18.32874     16.65141     15.79765     15.46708     -0.04783      3.49926      2.35995      6.22081      2.89430   2621.23000   8425.30500      0.14965     57.89967
       3112.16040      6.12500   2637.50123   1171.71006     25.51260     18.51631     16.59855     15.54528     15.35258     -0.05836      3.20334      2.34138      6.13388      2.91436   2554.47700   8102.89800      0.15981     54.63030
       3112.31280      6.12500   2634.74957   1166.16604     25.48793     18.46325     16.58518     15.19078     15.21855     -0.05575      3.07428      2.33397      6.23530      2.84253   2657.25900   8125.56500      0.15138     51.23692
       3112.46520      6.12500   2640.25065   1159.95637     25.27413     18.43530     16.35044     14.97714     14.70047     -0.06241      3.35909      2.32458      6.22081      2.78760   2676.92900   7981.23000      0.14638     49.78117
       3112.61760      6.12500   2641.99966   1169.71420     24.62585     18.02810     15.93713     14.59133     14.08768     -0.07111      3.51620      2.31737      6.23530      2.76540   2579.84300   7724.11100      0.15361     51.94649
       3112.77000      6.12500   2662.74953   1172.37549     24.16376     17.47552     15.45406     14.17051     13.41747     -0.05783      4.01701      2.33027      6.22081      2.80932   2605.18800   7778.94200      0.15881     56.85100
       3112.92240      6.12500   2673.74943   1162.61766     24.24064     17.34743     15.41027     14.07198     13.15813     -0.04397      3.75714      2.34877      6.22081      2.86773   2516.51200   7861.09600      0.16329     59.03467
       3113.07480      6.12500   2671.49909   1148.64623     23.90447     17.57478     15.62505     14.20306     13.10599     -0.03168      3.35788      2.35212      6.22081      2.85836   2579.81200   8212.38500      0.15853     57.53716
       3113.22720      6.12500   2680.66680   1148.42435     23.98415     18.36274     16.39669     14.96576     13.16226     -0.01983      3.05471      2.36145      6.23530      2.74143   2871.18600   8486.00500      0.14374     51.52521
       3113.37960      6.12500   2686.75013   1153.08149     23.76494     18.65932     17.11653     15.46953     13.58271     -0.02797      3.50280      2.35193      6.22081      2.69515   3251.19800   8924.14000      0.12240     44.25495
       3113.53200      6.12500   2676.75063   1154.19047     22.99351     18.56586     18.58628     16.68428     14.53198     -0.03237      3.87754      2.36416      6.22081      2.68272   3023.20100   9170.49500      0.10812     41.56558
       3113.68440      6.12500   2661.33323   1155.52111     19.87091     16.15801     17.04568     15.08484     13.28255     -0.03269      4.60901      2.41113      6.22081      2.68840   2829.54000   8248.90300      0.14887     49.24898
       3113.83680      6.12500   2632.49924   1155.74278     14.04089     11.95571     11.64166     11.24814     10.65772     -0.06316      4.96506      2.43952      6.23530      2.69252   2714.89600   7502.03600      0.17889     68.18024
       3113.98920      6.12500   2644.00046   1144.87619      9.66984      8.54291      8.45352      8.21605      8.09404     -0.04906      5.79550      2.54486      6.22081      2.68113   2714.97000   8271.77200      0.13339     94.07132
       3114.14160      6.12500   2641.50059   1128.24325      7.74857      7.02232      7.00917      7.11755      7.12100     -0.04120      4.96766      2.62444      6.23530      2.62814   2926.07800   8422.27600      0.11752    116.15920
