~VERSION INFORMATION 
VERS  .    2.0                                     :CWLS Log ASCII Standard - VERSION 2.0
WRAP  .    NO                                      :One Line per Depth step
PROD  .    Schlumberger Technology Corp.           :LAS Producer
PROG  .    Horizon LASWriter 6.2.68624.3100        :LAS Program name and version
SOURCE.    AT-33-F section 6.125" Run 1/1/1-Log[2]/Down:Run&Pass Information
CREA  .    07/28/2016                              :LAS Creation date {MM/DD/YYYY}
#--------------------------------------------------
~WELL INFORMATION 
#MNEM           .UNIT                      DATA            :DESCRIPTION
#----            ------          --------------            -----------------------------
STRT            .m                   1518.36120            :START DEPTH
STOP            .m                   3242.61480            :STOP DEPTH
STEP            .m                       0.1524            :STEP
NULL            .                       -999.25            :NULL VALUE
COMP            .                         PTTEP            :COMPANY
WELL            .                       AT-33-F            :WELL NAME
FLD             .                ARTHIT / Block: 15A       :FIELD NAME
RIGN            .                          T-17            :Rig Name
RIGTYP          .                Tender Assisted           :Rig Type
SON             .                    DGEY-00011            :Service Order Number
SRVC            .                  Schlumberger            :SERVICE COMPANY
DATE            .                    07/28/2016            :LOG DATE(Composite Date for Composite LAP) (MM/DD/YYYY)
CLAB            .                     Rig Name:            :County Label
CNTY            .                          T-17            :COUNTY
SLAB            .                      Country:            :State/Province Label
STAT            .                      Thailand            :STATE or PROVINCE
PROV            .                      Thailand            :STATE or PROVINCE
CTRY            .                      Thailand            :COUNTRY
CONT_REGION     .                          Asia            :Continent Region
SECT            .                                          :Section
TOWN            .                                          :Township
RANG            .                                          :Range
API             .                                          :API NUMBER
UWI             .                                          :UNIQUE WELL ID
LUL             .                      Thailand            :Logging Unit Location
LUN             .                          7003            :Logging Unit Number
LOC             .                Gulf of Thailand          :FIELD LOCATION
FL1             .                X: 890 685.860 mE (DATUM: INDIAN 1975):Field Location Line 1
FL2             .                Y: 893 515.640 mN (UTM ZONE 47N):Field Location Line 2
LATI            .deg             8° 4' 7.168" N            :LATITUDE
LONG            .deg             102° 32' 38.971" E        :LONGITUDE
PDAT            .                           MSL            :Local Permanent Datum
LMF             .                            DF            :Logging Measured From
APD             .m                     29.00000            :Elevation of Depth Reference (LMF) Above Permanent Datum
EPD             .m                      0.00000            :Elevation of Permanent Datum (PDAT) above Mean Sea Level
EKB             .m                     29.00000            :Elevation of Kelly Bushing Above Permanent Datum
EDF             .m                     29.00000            :Elevation of Drill Floor Above Permanent Datum
EGL             .m                    -77.08000            :Elevation of Ground Level Above Permanent Datum
ECF             .m                      -999.25            :Elevation of Casing Flange above Permanent Datum
#--------------------------------------------------
~CURVE INFORMATION
#MNEM           .UNIT                  API CODE            :DESCRIPTION
#----            ------          --------------            -----------------------------
DEPT            .m                                         :                                                        Depth Index
BS              .in                                        :(RT)    (Borehole)              (6in)                   Bit Size
TENS            .lbf                                       :        (WLWorkflow)            (6in)                   Cable Tension
HTEN            .lbf                                       :        (LEH-QT)                (6in)                   Head Tension
AT10            .ohm.m                                     :        (QAIT-A)                (3in)                   Array Induction Two Foot Resistivity A10
AT20            .ohm.m                                     :        (QAIT-A)                (3in)                   Array Induction Two Foot Resistivity A20
AT30            .ohm.m                                     :        (QAIT-A)                (3in)                   Array Induction Two Foot Resistivity A30
AT60            .ohm.m                                     :        (QAIT-A)                (3in)                   Array Induction Two Foot Resistivity A60
AT90            .ohm.m                                     :        (QAIT-A)                (3in)                   Array Induction Two Foot Resistivity A90
DRHOLS          .g/cm3                                     :        (QLDT-B)                (6in)                   Density Correction Long Spacing
PEF             .                                          :        (QLDT-B)                (6in)                   Photoelectric Factor
RHOB            .g/cm3                                     :        (QLDT-B)                (6in)                   Bulk Density
CALI            .in                                        :        (QLDT-B)                (6in)                   Caliper
TNRA            .                                          :        (QCNT)                  (6in)                   Thermal Neutron Ratio
CFTC            .1/s                                       :        (QCNT)                  (6in)                   Corrected Far Thermal Count Rate
CNTC            .1/s                                       :        (QCNT)                  (6in)                   Corrected Near Thermal Count Rate
NPOR            .m3/m3                                     :        (QCNT)                  (6in)                   Enhanced Thermal Neutron Porosity in Selected Lithology
GR              .gAPI                                      :        (QTGC-B)                (6in)                   Gamma Ray
#-------------------------------------------------------------
#            DEPT           BS         TENS         HTEN         AT10         AT20         AT30         AT60         AT90       DRHOLS          PEF         RHOB         CALI         TNRA         CFTC         CNTC         NPOR           GR 
#                   (Borehole)  (WLWorkflo)     (LEH-QT)     (QAIT-A)     (QAIT-A)     (QAIT-A)     (QAIT-A)     (QAIT-A)     (QLDT-B)     (QLDT-B)     (QLDT-B)     (QLDT-B)       (QCNT)       (QCNT)       (QCNT)       (QCNT)     (QTGC-B) 
#                         (RT)                                                                                                                                                                                                                 
#                        (6in)        (6in)        (6in)        (3in)        (3in)        (3in)        (3in)        (3in)        (6in)        (6in)        (6in)        (6in)        (6in)        (6in)        (6in)        (6in)        (6in) 
~ASCII
# ...
       2886.30360      6.12500   2554.00045   1176.36742      5.03279      4.83944      4.79506      4.81925      4.60281     -0.04263      7.24490      2.62941      6.23530      3.29812   1773.38600   6318.97500      0.17876    179.41310
       2886.45600      6.12500   2555.74946   1186.56880      4.80895      4.65360      4.60544      4.56991      4.40715     -0.03771      6.77440      2.63084      6.23530      3.25327   1739.60300   5821.68300      0.18831    176.74040
       2886.60840      6.12500   2567.25069   1189.22987      4.43321      4.34644      4.29266      4.25935      4.17219     -0.04443      6.74428      2.60931      6.22081      3.41621   1528.48900   5552.48300      0.20469    173.37270
       2886.76080      6.12500   2557.66708   1200.54045      4.16557      4.03372      3.95998      3.95122      3.96374     -0.03998      6.11814      2.59612      6.23530      3.71844   1283.56400   5251.37700      0.24622    176.57050
       2886.91320      6.12500   2553.00005   1198.54438      3.96452      3.82954      3.79081      3.75007      3.82655     -0.03709      7.34991      2.57287      6.23530      3.85020   1194.92400   5169.15200      0.27506    183.17120
       2887.06560      6.12500   2565.49943   1195.66120      3.90262      3.74763      3.70790      3.66961      3.73932     -0.03688      7.73133      2.55486      6.23530      3.82877   1355.36900   5502.31200      0.25768    192.85560
       2887.21800      6.12500   2566.25029   1185.23816      3.84557      3.69589      3.59477      3.56570      3.63360     -0.03674      7.66326      2.56486      6.23530      3.58199   1508.78200   6068.03800      0.20373    197.48360
       2887.37040      6.12500   2561.25054   1181.24623      4.05725      3.84015      3.74836      3.76400      3.75246     -0.03413      6.76969      2.59735      6.23530      3.35980   1849.35000   6521.24700      0.17023    192.47290
       2887.52280      6.12500   2555.25039   1182.13355      4.78622      4.59070      4.48424      4.45456      4.37770     -0.01860      6.21125      2.65310      6.22081      3.11128   1954.94700   6528.74800      0.15423    179.62120
       2887.67520      6.12500   2572.00090   1181.46811      5.82199      5.57549      5.47297      5.47185      5.16527     -0.03376      5.72720      2.65665      6.23530      3.17447   1992.94300   6410.23800      0.16240    167.35170
       2887.82760      6.12500   2554.66588   1180.35936      6.32116      6.25537      6.04008      6.00770      5.60206     -0.02770      4.79679      2.68769      6.23530      3.25179   1612.93600   6017.85300      0.17793    160.95720
       2887.98000      6.12500   2548.75116   1175.03678      6.03738      6.09030      5.87934      5.83211      5.49756     -0.04153      4.91648      2.69325      6.23530      3.38203   1558.02400   5593.55900      0.21195    159.44620
       2888.13240      6.12500   2543.25008   1175.03678      5.78747      5.72315      5.60033      5.53919      5.27520     -0.03349      5.33876      2.70911      6.22081      3.42113   1448.26500   5269.54100      0.22419    161.12350
       2888.28480      6.12500   2553.49912   1163.06121      5.15695      5.03042      5.00345      4.93389      4.71335     -0.03220      6.87252      2.70202      6.23530      3.44154   1414.48300   5456.68600      0.22007    163.95430
       2888.43720      6.12500   2548.49937   1156.40799      4.47624      4.32329      4.31656      4.29390      4.24082     -0.04054      7.25153      2.64613      6.23530      3.57149   1507.37800   5511.42200      0.22114    167.81810
       2888.58960      6.12500   2555.74946   1167.05314      3.98152      3.87356      3.84106      3.83049      3.84561     -0.05394      7.09586      2.57432      6.23530      3.46495   1511.59600   6136.49000      0.18109    173.61880
       2888.74200      6.12500   2551.99965   1167.49669      3.87487      3.77941      3.71689      3.74769      3.85052     -0.05565      6.75683      2.54729      6.22081      3.30957   1701.57800   5976.79100      0.19072    179.74090
       2888.89440      6.12500   2529.75031   1177.91973      3.98138      3.86642      3.81367      3.85941      4.01189     -0.05160      6.79343      2.56280      6.22895      3.09974   1849.38800   5830.70600      0.20236    184.86920
       2889.04680      6.12500   2512.50072   1168.82733      4.34159      4.23340      4.17117      4.19772      4.30640     -0.04810      7.19007      2.60098      6.22081      3.02535   1950.71900   6592.73500      0.16428    184.56050
       2889.19920      6.12500   2510.00084   1170.37964      4.83647      4.69791      4.56700      4.58944      4.66636     -0.05625      6.83153      2.61940      6.22081      3.02398   2144.94900   7017.02600      0.15733    183.63370
       2889.35160      6.12500   2518.50087   1170.60130      5.35862      5.17626      5.02730      5.05697      5.12421     -0.06074      6.73017      2.62615      6.11939      2.96205   2297.39000   7232.98700      0.15513    181.07830
       2889.50400      6.12500   2529.50077   1178.80683      6.04601      5.94250      5.72988      5.73129      5.74664     -0.05280      6.55099      2.64338      6.23530      2.89270   2448.90800   7784.98000      0.12731    178.80780
       2889.65640      6.12500   2527.66633   1189.67364      6.97811      6.83988      6.61768      6.54854      6.49636     -0.05065      6.54244      2.64375      6.23530      2.87358   2457.39700   7486.85300      0.13552    173.72410
       2889.80880      6.12500   2537.74901   1197.43539      7.49267      7.11864      6.86946      6.73280      6.57941     -0.05808      6.17623      2.62762      6.22081      2.82636   2233.62100   6893.84400      0.15586    166.17810
       2889.96120      6.12500   2540.75021   1205.64092      6.73697      6.42203      6.23954      6.04282      5.83808     -0.03905      5.91907      2.64733      6.23530      2.91086   2220.94900   6720.48400      0.16242    161.62900
       2890.11360      6.12500   2539.00120   1206.74990      6.19766      5.83088      5.72255      5.60325      5.46003     -0.03505      5.27736      2.65804      6.23530      2.99963   1967.61300   6533.40700      0.16732    157.51320
       2890.26600      6.12500   2565.74896   1205.64092      5.99986      5.71363      5.58545      5.48252      5.24241     -0.04022      5.16533      2.66561      6.23530      3.20147   1929.60800   6510.61000      0.17616    153.89060
       2890.41840      6.12500   2581.00000   1203.64507      5.96627      5.67213      5.62289      5.48076      5.27431     -0.05092      4.72324      2.65687      6.23530      3.25143   1769.16300   6510.59600      0.16807    149.62790
       2890.57080      6.12500   2582.00040   1200.76212      5.95634      5.76992      5.60290      5.47026      5.24322     -0.04603      5.36848      2.66853      6.23530      3.33017   1743.82500   6072.61700      0.19028    145.04300
       2890.72320      6.12500   2586.50108   1201.64899      5.82575      5.49214      5.44168      5.33131      5.09416     -0.06444      5.90210      2.64565      6.23530      3.22900   1553.82400   5639.16900      0.20858    142.41630
       2890.87560      6.12500   2592.75077   1199.43147      5.09280      4.88259      4.83519      4.71143      4.52715     -0.05401      7.10259      2.65808      6.23530      3.32234   1650.93300   5534.24900      0.22049    146.89310
       2891.02800      6.12500   2573.99945   1203.86673      4.40699      4.23666      4.14457      4.05790      3.94506     -0.05570      6.67546      2.64463      6.23530      3.45462   1579.13500   5976.79000      0.19797    154.72680
       2891.18040      6.12500   2555.74946   1201.64921      4.17166      4.03269      3.95235      3.91536      3.80420     -0.04204      6.54157      2.64875      6.22895      3.48231   1548.19000   6282.37800      0.18714    164.28630
       2891.33280      6.12500   2544.00095   1196.32664      4.39265      4.22751      4.16387      4.14020      4.07987     -0.03543      6.01608      2.64019      6.22895      3.34742   1769.16300   6089.33600      0.19146    166.78750
