~VERSION INFORMATION 
VERS  .    2.0                                     :CWLS Log ASCII Standard - VERSION 2.0
WRAP  .    NO                                      :One Line per Depth step
PROD  .    Schlumberger Technology Corp.           :LAS Producer
PROG  .    Horizon LASWriter 6.2.68624.3100        :LAS Program name and version
SOURCE.    AT-33-F section 6.125" Run 1/1/1-Log[2]/Down:Run&Pass Information
CREA  .    07/28/2016                              :LAS Creation date {MM/DD/YYYY}
#--------------------------------------------------
~WELL INFORMATION 
#MNEM           .UNIT                      DATA            :DESCRIPTION
#----            ------          --------------            -----------------------------
STRT            .m                   1518.36120            :START DEPTH
STOP            .m                   3242.61480            :STOP DEPTH
STEP            .m                       0.1524            :STEP
NULL            .                       -999.25            :NULL VALUE
COMP            .                         PTTEP            :COMPANY
WELL            .                       AT-33-F            :WELL NAME
FLD             .                ARTHIT / Block: 15A       :FIELD NAME
RIGN            .                          T-17            :Rig Name
RIGTYP          .                Tender Assisted           :Rig Type
SON             .                    DGEY-00011            :Service Order Number
SRVC            .                  Schlumberger            :SERVICE COMPANY
DATE            .                    07/28/2016            :LOG DATE(Composite Date for Composite LAP) (MM/DD/YYYY)
CLAB            .                     Rig Name:            :County Label
CNTY            .                          T-17            :COUNTY
SLAB            .                      Country:            :State/Province Label
STAT            .                      Thailand            :STATE or PROVINCE
PROV            .                      Thailand            :STATE or PROVINCE
CTRY            .                      Thailand            :COUNTRY
CONT_REGION     .                          Asia            :Continent Region
SECT            .                                          :Section
TOWN            .                                          :Township
RANG            .                                          :Range
API             .                                          :API NUMBER
UWI             .                                          :UNIQUE WELL ID
LUL             .                      Thailand            :Logging Unit Location
LUN             .                          7003            :Logging Unit Number
LOC             .                Gulf of Thailand          :FIELD LOCATION
FL1             .                X: 890 685.860 mE (DATUM: INDIAN 1975):Field Location Line 1
FL2             .                Y: 893 515.640 mN (UTM ZONE 47N):Field Location Line 2
LATI            .deg             8° 4' 7.168" N            :LATITUDE
LONG            .deg             102° 32' 38.971" E        :LONGITUDE
PDAT            .                           MSL            :Local Permanent Datum
LMF             .                            DF            :Logging Measured From
APD             .m                     29.00000            :Elevation of Depth Reference (LMF) Above Permanent Datum
EPD             .m                      0.00000            :Elevation of Permanent Datum (PDAT) above Mean Sea Level
EKB             .m                     29.00000            :Elevation of Kelly Bushing Above Permanent Datum
EDF             .m                     29.00000            :Elevation of Drill Floor Above Permanent Datum
EGL             .m                    -77.08000            :Elevation of Ground Level Above Permanent Datum
ECF             .m                      -999.25            :Elevation of Casing Flange above Permanent Datum
#--------------------------------------------------
~CURVE INFORMATION
#MNEM           .UNIT                  API CODE            :DESCRIPTION
#----            ------          --------------            -----------------------------
DEPT            .m                                         :                                                        Depth Index
BS              .in                                        :(RT)    (Borehole)              (6in)                   Bit Size
TENS            .lbf                                       :        (WLWorkflow)            (6in)                   Cable Tension
HTEN            .lbf                                       :        (LEH-QT)                (6in)                   Head Tension
AT10            .ohm.m                                     :        (QAIT-A)                (3in)                   Array Induction Two Foot Resistivity A10
AT20            .ohm.m                                     :        (QAIT-A)                (3in)                   Array Induction Two Foot Resistivity A20
AT30            .ohm.m                                     :        (QAIT-A)                (3in)                   Array Induction Two Foot Resistivity A30
AT60            .ohm.m                                     :        (QAIT-A)                (3in)                   Array Induction Two Foot Resistivity A60
AT90            .ohm.m                                     :        (QAIT-A)                (3in)                   Array Induction Two Foot Resistivity A90
DRHOLS          .g/cm3                                     :        (QLDT-B)                (6in)                   Density Correction Long Spacing
PEF             .                                          :        (QLDT-B)                (6in)                   Photoelectric Factor
RHOB            .g/cm3                                     :        (QLDT-B)                (6in)                   Bulk Density
CALI            .in                                        :        (QLDT-B)                (6in)                   Caliper
TNRA            .                                          :        (QCNT)                  (6in)                   Thermal Neutron Ratio
CFTC            .1/s                                       :        (QCNT)                  (6in)                   Corrected Far Thermal Count Rate
CNTC            .1/s                                       :        (QCNT)                  (6in)                   Corrected Near Thermal Count Rate
NPOR            .m3/m3                                     :        (QCNT)                  (6in)                   Enhanced Thermal Neutron Porosity in Selected Lithology
GR              .gAPI                                      :        (QTGC-B)                (6in)                   Gamma Ray
#-------------------------------------------------------------
#            DEPT           BS         TENS         HTEN         AT10         AT20         AT30         AT60         AT90       DRHOLS          PEF         RHOB         CALI         TNRA         CFTC         CNTC         NPOR           GR 
#                   (Borehole)  (WLWorkflo)     (LEH-QT)     (QAIT-A)     (QAIT-A)     (QAIT-A)     (QAIT-A)     (QAIT-A)     (QLDT-B)     (QLDT-B)     (QLDT-B)     (QLDT-B)       (QCNT)       (QCNT)       (QCNT)       (QCNT)     (QTGC-B) 
#                         (RT)                                                                                                                                                                                                                 
#                        (6in)        (6in)        (6in)        (3in)        (3in)        (3in)        (3in)        (3in)        (6in)        (6in)        (6in)        (6in)        (6in)        (6in)        (6in)        (6in)        (6in) 
~ASCII
# ...
       2098.70040      6.12500   2048.25002   1042.64027      2.68047      2.64870      2.60361      2.58197      2.54779     -0.04681      6.04130      2.56905      6.28684      3.84720   1135.81100   5164.74700      0.22950    125.34350
       2098.85280      6.12500   2035.99995   1037.31770      2.61168      2.61321      2.58077      2.54624      2.48644     -0.06939      6.76449      2.50683      6.28684      4.10110   1216.03300   4954.81700      0.23101    125.39330
       2099.00520      6.12500   2017.33339   1039.31378      2.47153      2.49178      2.46406      2.43050      2.37268     -0.06071      6.32966      2.50511      6.28684      3.96765   1068.25300   4986.74300      0.21702    126.91210
       2099.15760      6.12500   1994.25001   1046.63198      2.33866      2.31515      2.30783      2.27251      2.21391     -0.05677      7.14456      2.49606      6.28684      4.01684   1055.58400   4343.44900      0.25385    129.09750
       2099.31000      6.12500   1998.50002   1054.17230      2.09923      2.05786      2.05854      2.02861      1.99111     -0.03397      7.18611      2.52641      6.28684      3.84632   1034.47500   4379.93700      0.23738    131.49020
       2099.46240      6.12500   2013.49995   1057.27691      1.92330      1.83908      1.83271      1.81271      1.79020     -0.01407      7.88096      2.54749      6.28684      3.81229   1034.30900   4256.76200      0.21665    133.41750
       2099.61480      6.12500   2025.74979   1066.36953      1.76962      1.73859      1.72581      1.70735      1.68795      0.01183      8.46228      2.59002      6.28684      3.77534   1093.58500   4379.21000      0.21418    135.11200
       2099.76720      6.12500   2032.99988   1075.68404      1.74954      1.71062      1.70830      1.69995      1.69737      0.02876      9.51448      2.60629      6.28684      3.86838   1009.14100   4151.81600      0.23811    138.05700
       2099.91960      6.12500   2053.66679   1079.45386      1.72234      1.70308      1.69859      1.68463      1.66465      0.04672     11.25923      2.63113      6.28684      4.43399   1009.15200   4457.51200      0.26102    141.16470
       2100.07200      6.12500   2063.00018   1068.14372      1.66827      1.64493      1.64087      1.63150      1.61290      0.04362     12.56744      2.59570      6.28684      4.67188    776.91550   4535.13100      0.27600    144.85270
       2100.22440      6.12500   2062.25022   1066.36953      1.59742      1.56407      1.55850      1.55263      1.53552      0.04290     15.47651      2.58740      6.28684      4.75132    907.80210   4434.69300      0.30605    147.94590
       2100.37680      6.12500   2061.50026   1075.68382      1.54913      1.52853      1.52029      1.51517      1.49444      0.03136      9.33796      2.58386      6.34473      4.34906    971.14000   4539.62500      0.25394    149.67460
       2100.52920      6.12500   2053.00001   1068.36561      1.59414      1.57529      1.56875      1.55974      1.53275      0.01989      7.97081      2.58054      6.28684      4.14454   1013.36100   4594.38400      0.24165    149.15330
       2100.68160      6.12500   2034.33322   1066.36953      1.65157      1.63336      1.62112      1.60530      1.57596      0.01604      8.09141      2.56655      6.28684      4.09319   1004.91800   4243.06500      0.26116    145.84770
       2100.83400      6.12500   2035.24999   1067.92206      1.66638      1.64092      1.62850      1.61794      1.58821      0.00715      9.55678      2.55670      6.28684      4.47008   1030.26500   4644.57200      0.25571    143.53970
       2100.98640      6.12500   2027.50015   1061.04695      1.62580      1.60400      1.59107      1.57729      1.55060      0.00436     11.84824      2.56450      6.30131      4.57682    776.91350   4471.25000      0.27784    141.57930
       2101.13880      6.12500   2026.75019   1061.49073      1.62289      1.59870      1.58372      1.57215      1.54190      0.01246      8.61576      2.60273      6.28684      4.62916    945.80320   4320.63500      0.31009    142.48700
       2101.29120      6.12500   2029.74981   1065.48244      1.61494      1.60005      1.58243      1.57112      1.54073      0.01824      8.44292      2.64058      6.27237      4.23053    988.02860   4621.74700      0.24169    143.38590
       2101.44360      6.12500   2034.25004   1068.80893      1.60456      1.59497      1.58021      1.57266      1.53913      0.00927      7.11031      2.66943      6.28684      4.26875   1034.47300   4617.19600      0.23679    142.94680
       2101.59600      6.12500   2035.33317   1076.34925      1.61223      1.60706      1.58775      1.57949      1.54712      0.01449      6.50218      2.68112      6.27877      4.06507    937.36050   4398.18800      0.24368    144.57450
       2101.74840      6.12500   2040.99993   1067.92206      1.63469      1.62184      1.60864      1.60894      1.56527      0.04365      7.23897      2.70646      6.27237      4.23624   1064.05000   4275.01300      0.26197    143.59700
       2101.90080      6.12500   2059.75012   1049.95848      1.65135      1.63811      1.62557      1.62284      1.58754      0.05594      7.81146      2.68098      6.26428      4.20127    865.57920   4343.51700      0.25189    142.64850
       2102.05320      6.12500   2055.25012   1057.05525      1.63697      1.61753      1.60242      1.60333      1.56733      0.07733      9.42283      2.67744      6.25789      4.51325    924.69180   4233.94000      0.28801    140.75200
       2102.20560      6.12500   2052.25004   1063.70824      1.62626      1.60912      1.59553      1.58954      1.56742      0.10039      8.24817      2.67169      6.26428      4.44227    878.25160   4416.43800      0.26317    136.76630
       2102.35800      6.12500   2033.74984   1060.16008      1.61750      1.60645      1.58903      1.58650      1.56749      0.12308      9.19286      2.68147      6.26428      4.50352    920.48430   4407.32100      0.27702    134.89600
       2102.51040      6.12500   2024.66666   1061.49073      1.59816      1.59995      1.58324      1.57774      1.56149      0.10160     10.10877      2.65070      6.26428      4.35020    882.46840   4215.75400      0.28272    131.72440
       2102.66280      6.12500   2018.00018   1064.15179      1.59120      1.57433      1.55380      1.55046      1.54283      0.11285     11.79503      2.66933      6.26428      4.40191   1000.71100   4535.06200      0.26413    131.46740
       2102.81520      6.12500   2021.00003   1073.24441      1.57726      1.54391      1.53192      1.53044      1.51448      0.07639      9.34580      2.61529      6.25789      4.24818    907.78810   4498.63700      0.24921    130.77910
       2102.96760      6.12500   2021.74999   1068.14372      1.56740      1.52665      1.50934      1.51267      1.49056      0.03633      6.18528      2.57460      6.27237      4.15375   1059.80700   4534.99700      0.25085    131.65930
       2103.12000      6.12500   2021.74999   1071.91377      1.61992      1.60679      1.57918      1.58875      1.55658      0.01069      9.06797      2.55710      6.27877      3.99551   1089.37700   4603.51100      0.23140    133.72150
       2103.27240      6.12500   2035.00000   1077.67989      1.76598      1.78676      1.76862      1.75608      1.71499     -0.00665      7.65810      2.55324      6.27237      3.99839   1059.80400   4708.50400      0.22641    135.22780
       2103.42480      6.12500   2034.25004   1084.11123      1.99485      1.97252      1.97624      1.96641      1.90648     -0.02250      6.38103      2.54189      6.25789      4.09702   1080.91800   4635.44600      0.23858    136.79470
       2103.57720      6.12500   2034.33322   1096.30846      2.02398      1.97614      1.95104      1.93070      1.86181     -0.02039      6.24262      2.55709      6.25789      4.13217   1021.80800   4644.56000      0.24644    137.88280
       2103.72960      6.12500   2048.74999   1091.42943      1.90375      1.85554      1.84010      1.80281      1.74172      0.00031      7.06882      2.56610      6.27237      4.31005    992.24930   4521.38300      0.26818    138.08090
