~VERSION INFORMATION 
VERS  .    2.0                                     :CWLS Log ASCII Standard - VERSION 2.0
WRAP  .    NO                                      :One Line per Depth step
PROD  .    Schlumberger Technology Corp.           :LAS Producer
PROG  .    Horizon LASWriter 6.2.68624.3100        :LAS Program name and version
SOURCE.    AT-33-F section 6.125" Run 1/1/1-Log[3]/Up:Run&Pass Information
CREA  .    07/28/2016                              :LAS Creation date {MM/DD/YYYY}
#--------------------------------------------------
~WELL INFORMATION 
#MNEM           .UNIT                      DATA            :DESCRIPTION
#----            ------          --------------            -----------------------------
STRT            .m                   3247.79640            :START DEPTH
STOP            .m                   1513.78920            :STOP DEPTH
STEP            .m                      -0.1524            :STEP
NULL            .                       -999.25            :NULL VALUE
COMP            .                         PTTEP            :COMPANY
WELL            .                       AT-33-F            :WELL NAME
FLD             .                ARTHIT / Block: 15A       :FIELD NAME
RIGN            .                          T-17            :Rig Name
RIGTYP          .                Tender Assisted           :Rig Type
SON             .                    DGEY-00011            :Service Order Number
SRVC            .                  Schlumberger            :SERVICE COMPANY
DATE            .                    07/28/2016            :LOG DATE(Composite Date for Composite LAP) (MM/DD/YYYY)
CLAB            .                     Rig Name:            :County Label
CNTY            .                          T-17            :COUNTY
SLAB            .                      Country:            :State/Province Label
STAT            .                      Thailand            :STATE or PROVINCE
PROV            .                      Thailand            :STATE or PROVINCE
CTRY            .                      Thailand            :COUNTRY
CONT_REGION     .                          Asia            :Continent Region
SECT            .                                          :Section
TOWN            .                                          :Township
RANG            .                                          :Range
API             .                                          :API NUMBER
UWI             .                                          :UNIQUE WELL ID
LUL             .                      Thailand            :Logging Unit Location
LUN             .                          7003            :Logging Unit Number
LOC             .                Gulf of Thailand          :FIELD LOCATION
FL1             .                X: 890 685.860 mE (DATUM: INDIAN 1975):Field Location Line 1
FL2             .                Y: 893 515.640 mN (UTM ZONE 47N):Field Location Line 2
LATI            .deg             8° 4' 7.168" N            :LATITUDE
LONG            .deg             102° 32' 38.971" E        :LONGITUDE
PDAT            .                           MSL            :Local Permanent Datum
LMF             .                            DF            :Logging Measured From
APD             .m                     29.00000            :Elevation of Depth Reference (LMF) Above Permanent Datum
EPD             .m                      0.00000            :Elevation of Permanent Datum (PDAT) above Mean Sea Level
EKB             .m                     29.00000            :Elevation of Kelly Bushing Above Permanent Datum
EDF             .m                     29.00000            :Elevation of Drill Floor Above Permanent Datum
EGL             .m                    -77.08000            :Elevation of Ground Level Above Permanent Datum
ECF             .m                      -999.25            :Elevation of Casing Flange above Permanent Datum
#--------------------------------------------------
~CURVE INFORMATION
#MNEM           .UNIT                  API CODE            :DESCRIPTION
#----            ------          --------------            -----------------------------
DEPT            .m                                         :                                                        Depth Index
BS              .in                                        :(RT)    (Borehole)              (6in)                   Bit Size
TENS            .lbf                                       :        (WLWorkflow)            (6in)                   Cable Tension
HTEN            .lbf                                       :        (LEH-QT)                (6in)                   Head Tension
AT10            .ohm.m                                     :        (QAIT-A)                (3in)                   Array Induction Two Foot Resistivity A10
AT20            .ohm.m                                     :        (QAIT-A)                (3in)                   Array Induction Two Foot Resistivity A20
AT30            .ohm.m                                     :        (QAIT-A)                (3in)                   Array Induction Two Foot Resistivity A30
AT60            .ohm.m                                     :        (QAIT-A)                (3in)                   Array Induction Two Foot Resistivity A60
AT90            .ohm.m                                     :        (QAIT-A)                (3in)                   Array Induction Two Foot Resistivity A90
DRHOLS          .g/cm3                                     :        (QLDT-B)                (6in)                   Density Correction Long Spacing
PEF             .                                          :        (QLDT-B)                (6in)                   Photoelectric Factor
RHOB            .g/cm3                                     :        (QLDT-B)                (6in)                   Bulk Density
CALI            .in                                        :        (QLDT-B)                (6in)                   Caliper
TNRA            .                                          :        (QCNT)                  (6in)                   Thermal Neutron Ratio
CFTC            .1/s                                       :        (QCNT)                  (6in)                   Corrected Far Thermal Count Rate
CNTC            .1/s                                       :        (QCNT)                  (6in)                   Corrected Near Thermal Count Rate
NPOR            .m3/m3                                     :        (QCNT)                  (6in)                   Enhanced Thermal Neutron Porosity in Selected Lithology
GR              .gAPI                                      :        (QTGC-B)                (6in)                   Gamma Ray
#-------------------------------------------------------------
#            DEPT           BS         TENS         HTEN         AT10         AT20         AT30         AT60         AT90       DRHOLS          PEF         RHOB         CALI         TNRA         CFTC         CNTC         NPOR           GR 
#                   (Borehole)  (WLWorkflo)     (LEH-QT)     (QAIT-A)     (QAIT-A)     (QAIT-A)     (QAIT-A)     (QAIT-A)     (QLDT-B)     (QLDT-B)     (QLDT-B)     (QLDT-B)       (QCNT)       (QCNT)       (QCNT)       (QCNT)     (QTGC-B) 
#                         (RT)                                                                                                                                                                                                                 
#                        (6in)        (6in)        (6in)        (3in)        (3in)        (3in)        (3in)        (3in)        (6in)        (6in)        (6in)        (6in)        (6in)        (6in)        (6in)        (6in)        (6in) 
~ASCII
# ...
       1879.85400      6.12500   4905.57168   1219.64427      5.39702      4.20304      4.01649      3.62189      3.51838     -0.02262      6.68398      2.33870      6.17639      3.87415   1252.19400   5100.65200      0.21123     83.64066
       1879.70160      6.12500   4875.75078   1209.63285      4.88314      3.82744      3.63001      3.28175      3.14344     -0.02709      4.99973      2.25904      6.19090      3.77988   1175.88500   5080.12100      0.21209     80.54575
       1879.54920      6.12500   4868.14324   1202.31442      4.27599      3.40447      3.20420      2.88024      2.73714     -0.02792      4.12887      2.17721      6.18365      3.85285   1313.10500   5062.43000      0.22809     71.79203
       1879.39680      6.12500   4904.85679   1210.96350      4.01940      3.18573      2.98558      2.67354      2.51502     -0.00995      3.75072      2.15505      6.19090      4.02828   1201.33500   5177.58700      0.22368     61.68891
       1879.24440      6.12500   4891.62454   1223.19265      4.10107      3.23676      3.00733      2.63848      2.47000     -0.00975      4.32361      2.14303      6.19090      4.10896   1102.60600   5390.35900      0.22801     56.12776
       1879.09200      6.12500   4910.42981   1217.72755      4.76492      3.56676      3.25125      2.79827      2.56899      0.00073      4.53001      2.20164      6.19090      4.09533   1199.10900   4936.44700      0.28075     55.00381
       1878.93960      6.12500   4911.49990   1214.62271      6.03208      4.30219      3.80798      3.18192      2.85627     -0.00737      4.62213      2.27351      6.18365      3.62701   1241.33700   5295.13200      0.26007     54.03486
       1878.78720      6.12500   4918.57239   1219.39068      9.36609      5.37068      4.50846      3.63703      3.21036     -0.01279      4.52556      2.34984      6.18365      3.42142   1807.28500   6092.60300      0.18403     51.91909
       1878.63480      6.12500   4939.99893   1239.57178      9.02876      5.57473      4.69656      3.71019      3.25412     -0.03726      4.63914      2.34993      6.18365      3.14862   2292.04900   7908.80900      0.08872     47.96737
       1878.48240      6.12500   4934.37421   1244.67247      7.24087      4.77063      3.98382      3.26315      2.95024     -0.03942      4.35671      2.31353      6.18365      3.22299   2182.90100   7381.79800      0.11220     44.79950
       1878.33000      6.12500   4963.99953   1231.03354      6.17109      4.22820      3.66261      3.07350      2.87953     -0.05262      3.99183      2.22803      6.18365      3.37415   1614.99400   5833.54800      0.20643     44.03922
       1878.17760      6.12500   4952.14310   1231.03376      6.07700      4.18426      3.60003      3.03502      2.89581     -0.04135      3.88191      2.18849      6.18365      3.74269   1336.47500   5266.22300      0.24988     46.66183
       1878.02520      6.12500   4904.49935   1219.94506      6.41125      4.30850      3.70846      3.12228      3.03038     -0.03262      4.37502      2.18526      6.19090      3.89596   1114.66900   5100.65000      0.23928     53.73507
       1877.87280      6.12500   4872.71361   1217.28400      6.55526      4.28598      3.68734      3.13226      3.09389     -0.01951      4.32770      2.19883      6.18365      4.02405   1194.88700   4909.54500      0.24740     61.80117
       1877.72040      6.12500   4893.14425   1220.65793      6.21822      4.17459      3.62763      3.10616      3.11901     -0.02573      4.00772      2.18832      6.17639      4.05570   1161.22700   5057.70400      0.23821     65.08365
       1877.56800      6.12500   4886.49889   1216.06419      5.92579      4.06620      3.54998      3.07160      3.11258     -0.02898      3.56875      2.18525      6.18365      4.06464   1073.66100   5023.09400      0.23586     61.96742
       1877.41560      6.12500   4900.14255   1223.60428      5.51839      3.89964      3.41789      3.00261      3.03595     -0.02125      3.76158      2.19170      6.19090      4.00343   1237.11000   5118.89900      0.23511     56.92263
       1877.26320      6.12500   4901.62629   1228.64180      4.96666      3.61458      3.20935      2.85975      2.91738     -0.01998      3.99987      2.19259      6.17734      3.86568   1226.55400   5098.91600      0.23119     56.04072
       1877.11080      6.12500   4905.42781   1216.95128      4.31110      3.32518      2.99252      2.69979      2.71760     -0.02013      3.88931      2.18682      6.17734      3.97753   1264.68300   5352.24100      0.22958     55.87615
       1876.95840      6.12500   4916.85709   1212.42071      4.31429      3.34779      3.01992      2.73344      2.73291     -0.01595      3.52370      2.16560      6.17010      4.03288   1235.30000   5559.17300      0.21512     50.61721
       1876.80600      6.12500   4885.62439   1206.97156      4.69141      3.63755      3.26304      2.95304      2.91784     -0.02309      3.44600      2.12810      6.17734      3.99837   1279.33100   5547.79700      0.21414     44.16104
       1876.65360      6.12500   4864.28552   1217.94921      5.13381      3.88259      3.46463      3.11422      3.05796     -0.03532      3.65790      2.12006      6.17734      3.81596   1262.45000   5201.60400      0.22888     44.31089
       1876.50120      6.12500   4890.57243   1219.01053      5.33077      4.04475      3.60295      3.22975      3.15162     -0.03132      3.55555      2.14460      6.17734      3.69293   1286.14300   5027.70000      0.22311     52.62637
       1876.34880      6.12500   4890.57243   1233.91671      5.63044      4.21464      3.76522      3.37485      3.32128     -0.03453      3.85872      2.16646      6.17734      3.65563   1353.23000   5328.76200      0.19618     62.63192
       1876.19640      6.12500   4915.62514   1234.58192      5.95775      4.53996      4.01491      3.57775      3.49237     -0.03964      3.85761      2.17123      6.17734      3.96203   1291.99300   5167.15400      0.21867     69.87114
       1876.04400      6.12500   4925.14355   1240.17360      6.31149      4.94966      4.32496      3.81705      3.79722     -0.04212      4.07026      2.19137      6.17734      4.02856   1073.65400   5263.08700      0.24112     76.45930
       1875.89160      6.12500   4925.57069   1240.79160      7.05098      5.37023      4.69112      4.10550      4.17106     -0.03430      3.60974      2.22801      6.19183      4.06368   1205.54100   5007.12000      0.25204     86.93716
       1875.73920      6.12500   4942.12562   1238.90657      6.28898      5.06901      4.53550      4.00922      4.17408     -0.03077      3.56807      2.28455      6.22081      3.85793   1353.22300   5566.03400      0.20021    100.68600
       1875.58680      6.12500   4924.28478   1232.25335      5.21407      4.38176      4.00295      3.69804      3.82891     -0.02592      4.20738      2.35952      6.19183      3.83350   1269.08400   5374.94100      0.20336    116.30620
       1875.43440      6.12500   4925.14355   1228.26165      4.42580      3.82089      3.56250      3.35691      3.52014     -0.01612      5.28264      2.44197      6.18459      3.67104   1262.56100   5144.00000      0.22180    129.65250
       1875.28200      6.12500   4934.71367   1239.68261      4.79298      4.13999      3.84723      3.71387      3.94294     -0.01427      6.48274      2.49085      6.19183      3.50604   1435.55500   5148.90000      0.20800    133.75670
       1875.12960      6.12500   4923.99927   1248.79097      5.40804      4.53671      4.23573      4.05171      4.30711     -0.02202      5.93454      2.50704      6.17734      3.38033   1486.22200   5499.90100      0.18194    126.68060
       1874.97720      6.12500   4944.12417   1248.22086      5.74766      4.80622      4.49518      4.32692      4.62814     -0.03639      6.25489      2.49884      6.19183      3.50882   1562.23300   5728.53500      0.17965    116.47800
       1874.82480      6.12500   4957.57224   1251.57905      5.16458      4.60321      4.37501      4.23833      4.51705     -0.04372      5.63901      2.49712      6.17734      3.58325   1501.15500   6009.23300      0.16941    113.46040
