~VERSION INFORMATION 
VERS  .    2.0                                     :CWLS Log ASCII Standard - VERSION 2.0
WRAP  .    NO                                      :One Line per Depth step
PROD  .    Schlumberger Technology Corp.           :LAS Producer
PROG  .    Horizon LASWriter 6.2.68624.3100        :LAS Program name and version
SOURCE.    AT-33-F section 6.125" Run 1/1/1-Log[2]/Down:Run&Pass Information
CREA  .    07/28/2016                              :LAS Creation date {MM/DD/YYYY}
#--------------------------------------------------
~WELL INFORMATION 
#MNEM           .UNIT                      DATA            :DESCRIPTION
#----            ------          --------------            -----------------------------
STRT            .m                   1518.36120            :START DEPTH
STOP            .m                   3242.61480            :STOP DEPTH
STEP            .m                       0.1524            :STEP
NULL            .                       -999.25            :NULL VALUE
COMP            .                         PTTEP            :COMPANY
WELL            .                       AT-33-F            :WELL NAME
FLD             .                ARTHIT / Block: 15A       :FIELD NAME
RIGN            .                          T-17            :Rig Name
RIGTYP          .                Tender Assisted           :Rig Type
SON             .                    DGEY-00011            :Service Order Number
SRVC            .                  Schlumberger            :SERVICE COMPANY
DATE            .                    07/28/2016            :LOG DATE(Composite Date for Composite LAP) (MM/DD/YYYY)
CLAB            .                     Rig Name:            :County Label
CNTY            .                          T-17            :COUNTY
SLAB            .                      Country:            :State/Province Label
STAT            .                      Thailand            :STATE or PROVINCE
PROV            .                      Thailand            :STATE or PROVINCE
CTRY            .                      Thailand            :COUNTRY
CONT_REGION     .                          Asia            :Continent Region
SECT            .                                          :Section
TOWN            .                                          :Township
RANG            .                                          :Range
API             .                                          :API NUMBER
UWI             .                                          :UNIQUE WELL ID
LUL             .                      Thailand            :Logging Unit Location
LUN             .                          7003            :Logging Unit Number
LOC             .                Gulf of Thailand          :FIELD LOCATION
FL1             .                X: 890 685.860 mE (DATUM: INDIAN 1975):Field Location Line 1
FL2             .                Y: 893 515.640 mN (UTM ZONE 47N):Field Location Line 2
LATI            .deg             8° 4' 7.168" N            :LATITUDE
LONG            .deg             102° 32' 38.971" E        :LONGITUDE
PDAT            .                           MSL            :Local Permanent Datum
LMF             .                            DF            :Logging Measured From
APD             .m                     29.00000            :Elevation of Depth Reference (LMF) Above Permanent Datum
EPD             .m                      0.00000            :Elevation of Permanent Datum (PDAT) above Mean Sea Level
EKB             .m                     29.00000            :Elevation of Kelly Bushing Above Permanent Datum
EDF             .m                     29.00000            :Elevation of Drill Floor Above Permanent Datum
EGL             .m                    -77.08000            :Elevation of Ground Level Above Permanent Datum
ECF             .m                      -999.25            :Elevation of Casing Flange above Permanent Datum
#--------------------------------------------------
~CURVE INFORMATION
#MNEM           .UNIT                  API CODE            :DESCRIPTION
#----            ------          --------------            -----------------------------
DEPT            .m                                         :                                                        Depth Index
BS              .in                                        :(RT)    (Borehole)              (6in)                   Bit Size
TENS            .lbf                                       :        (WLWorkflow)            (6in)                   Cable Tension
HTEN            .lbf                                       :        (LEH-QT)                (6in)                   Head Tension
AT10            .ohm.m                                     :        (QAIT-A)                (3in)                   Array Induction Two Foot Resistivity A10
AT20            .ohm.m                                     :        (QAIT-A)                (3in)                   Array Induction Two Foot Resistivity A20
AT30            .ohm.m                                     :        (QAIT-A)                (3in)                   Array Induction Two Foot Resistivity A30
AT60            .ohm.m                                     :        (QAIT-A)                (3in)                   Array Induction Two Foot Resistivity A60
AT90            .ohm.m                                     :        (QAIT-A)                (3in)                   Array Induction Two Foot Resistivity A90
DRHOLS          .g/cm3                                     :        (QLDT-B)                (6in)                   Density Correction Long Spacing
PEF             .                                          :        (QLDT-B)                (6in)                   Photoelectric Factor
RHOB            .g/cm3                                     :        (QLDT-B)                (6in)                   Bulk Density
CALI            .in                                        :        (QLDT-B)                (6in)                   Caliper
TNRA            .                                          :        (QCNT)                  (6in)                   Thermal Neutron Ratio
CFTC            .1/s                                       :        (QCNT)                  (6in)                   Corrected Far Thermal Count Rate
CNTC            .1/s                                       :        (QCNT)                  (6in)                   Corrected Near Thermal Count Rate
NPOR            .m3/m3                                     :        (QCNT)                  (6in)                   Enhanced Thermal Neutron Porosity in Selected Lithology
GR              .gAPI                                      :        (QTGC-B)                (6in)                   Gamma Ray
#-------------------------------------------------------------
#            DEPT           BS         TENS         HTEN         AT10         AT20         AT30         AT60         AT90       DRHOLS          PEF         RHOB         CALI         TNRA         CFTC         CNTC         NPOR           GR 
#                   (Borehole)  (WLWorkflo)     (LEH-QT)     (QAIT-A)     (QAIT-A)     (QAIT-A)     (QAIT-A)     (QAIT-A)     (QLDT-B)     (QLDT-B)     (QLDT-B)     (QLDT-B)       (QCNT)       (QCNT)       (QCNT)       (QCNT)     (QTGC-B) 
#                         (RT)                                                                                                                                                                                                                 
#                        (6in)        (6in)        (6in)        (3in)        (3in)        (3in)        (3in)        (3in)        (6in)        (6in)        (6in)        (6in)        (6in)        (6in)        (6in)        (6in)        (6in) 
~ASCII
# ...
       2663.49480      6.12500   2402.24992   1138.66651      4.73738      4.92394      4.68913      4.64975      4.57486     -0.00004      7.30923      2.72774      6.22895      3.16985   2047.86600   6953.05500      0.15293    167.42430
       2663.64720      6.12500   2413.66571   1136.89232      5.93893      5.80234      5.51998      5.44022      5.20184     -0.00704      6.11210      2.76118      6.22895      3.14695   1916.94500   6688.62600      0.16122    153.21520
       2663.79960      6.12500   2412.75074   1124.47320      6.13949      5.73957      5.39983      5.33999      4.96560     -0.01789      5.57288      2.76074      6.22895      3.17365   1970.42500   6528.86100      0.17031    142.03230
       2663.95200      6.12500   2419.00043   1123.36444      5.70716      5.29875      5.05297      4.96465      4.54136     -0.02549      5.37179      2.72396      6.22895      3.11130   1773.38100   6174.50100      0.16690    139.06520
       2664.10440      6.12500   2431.33345   1136.00523      5.14598      4.81951      4.68644      4.57918      4.13521     -0.02003      5.30433      2.70919      6.23530      3.28164   1802.94200   5926.60400      0.18909    144.05870
       2664.25680      6.12500   2404.25072   1132.01329      4.56021      4.29100      4.19829      4.14758      3.76034      0.00159      5.75803      2.70541      6.22895      3.48695   1448.26100   5598.12200      0.20465    152.43530
       2664.40920      6.12500   2393.25081   1122.25546      3.95780      3.75325      3.67932      3.64294      3.37420     -0.01084      6.54367      2.67071      6.21448      3.72464   1380.68700   5725.85600      0.21725    164.46040
       2664.56160      6.12500   2397.25016   1116.04601      3.48724      3.33964      3.30094      3.27687      3.10564     -0.02258      6.93095      2.62409      6.22895      3.92923   1296.49600   5260.42300      0.24308    174.40770
       2664.71400      6.12500   2400.50090   1098.30432      3.19117      3.06875      3.03463      3.05250      2.89211     -0.02408      7.16432      2.60767      6.22081      3.76995   1178.03200   5334.61800      0.22104    184.47450
       2664.86640      6.12500   2395.66751   1092.98196      2.95127      2.83218      2.82376      2.80933      2.72891     -0.02391      6.43406      2.59676      6.22081      3.76240   1359.57600   4936.55600      0.23721    192.52250
       2665.01880      6.12500   2389.24921   1112.05431      2.73979      2.64204      2.61841      2.56930      2.57476     -0.03518      6.72863      2.59489      6.23530      3.69519   1199.16100   4836.12300      0.23987    197.03790
       2665.17120      6.12500   2383.24906   1116.71122      2.62368      2.53244      2.51057      2.53020      2.54107     -0.01923      6.86565      2.62319      6.21448      3.74491   1178.03400   5078.06300      0.23225    202.98450
       2665.32360      6.12500   2359.50025   1118.92896      2.61900      2.50509      2.49154      2.49454      2.49734     -0.02594      7.61942      2.63589      6.21448      3.83854   1351.14500   5123.62800      0.22910    206.99250
       2665.47600      6.12500   2372.66731   1120.33357      2.58485      2.48890      2.48746      2.49981      2.49882     -0.03213      8.04506      2.65011      6.23530      3.69715   1287.81600   5584.44000      0.20084    210.31430
       2665.62840      6.12500   2386.00073   1118.92896      2.56173      2.52505      2.49316      2.50281      2.50744     -0.01694      8.36506      2.68184      6.21448      3.65627   1359.57400   5237.66700      0.22167    205.95440
       2665.78080      6.12500   2377.50070   1118.70730      2.90339      2.84566      2.81229      2.85840      2.87258     -0.02381      7.46231      2.66163      6.22895      3.42203   1473.59200   5392.73600      0.19956    195.61980
       2665.93320      6.12500   2388.99968   1134.45292      3.33596      3.31488      3.31071      3.35302      3.36437     -0.03102      6.95001      2.64586      6.22895      3.37248   1549.60000   5543.36000      0.18532    183.22170
       2666.08560      6.12500   2392.33359   1132.67873      3.72985      3.63284      3.57435      3.57462      3.58621     -0.01744      5.45425      2.64295      6.22895      3.55890   1469.37400   5424.75000      0.20398    172.53470
       2666.23800      6.12500   2397.49970   1119.81606      3.80976      3.66745      3.63676      3.61908      3.60986      0.00340      5.93684      2.65790      6.24342      3.62506   1325.81700   5652.85800      0.20640    169.98220
       2666.39040      6.12500   2399.50050   1116.48979      3.86051      3.75644      3.71420      3.67258      3.69434     -0.00365      5.71635      2.64418      6.21448      3.84532   1401.81500   5315.24900      0.24181    169.00040
       2666.54280      6.12500   2406.75059   1119.37251      3.91971      3.81972      3.79650      3.70949      3.78845      0.00051      5.86513      2.63908      6.21448      3.83929   1258.23900   5543.36000      0.22554    165.62300
       2666.69520      6.12500   2406.66741   1122.69923      3.94335      3.87033      3.83886      3.76828      3.82651     -0.00747      5.13510      2.62766      6.22895      3.83167   1287.83100   5465.71900      0.22226    161.02840
       2666.84760      6.12500   2393.99943   1126.02573      3.93874      3.89198      3.86667      3.81146      3.84797      0.01015      5.49257      2.65280      6.22895      3.82712   1372.25900   5169.31200      0.24233    158.05390
       2667.00000      6.12500   2390.75094   1124.47320      3.90991      3.87286      3.83828      3.79887      3.80666      0.00405      5.95097      2.65709      6.22895      3.74306   1194.92400   5246.80100      0.21959    160.30520
       2667.15240      6.12500   2385.00033   1119.15062      3.87837      3.84378      3.80496      3.77697      3.73463     -0.00145      5.57681      2.64532      6.22895      3.70182   1306.11700   5187.50300      0.21325    163.50270
       2667.30480      6.12500   2399.33414   1120.33357      3.87472      3.81648      3.78427      3.74921      3.66423      0.00732      5.38883      2.67191      6.22895      3.57956   1351.12900   4909.19000      0.21975    169.49990
       2667.45720      6.12500   2386.00073   1117.15500      3.82800      3.76204      3.75083      3.71818      3.61051      0.01498      5.74154      2.67409      6.22895      3.68405   1254.03600   5009.47800      0.22470    174.16330
       2667.60960      6.12500   2390.75094   1113.38473      3.72256      3.64803      3.64073      3.57576      3.53456     -0.00573      6.67734      2.63392      6.22895      3.99423   1152.69600   4968.49800      0.24735    179.84660
       2667.76200      6.12500   2396.00023   1088.99003      3.61439      3.54664      3.53622      3.47486      3.43493     -0.01507      7.22022      2.57715      6.22895      4.05215   1110.47800   5150.99000      0.24704    183.24220
       2667.91440      6.12500   2398.99918   1081.44994      3.55615      3.48931      3.48843      3.40722      3.43284      0.00120      7.58203      2.59661      6.22895      4.05700   1207.58800   5050.62900      0.24116    184.64820
       2668.06680      6.12500   2393.25081   1075.90570      3.51884      3.44742      3.44223      3.39484      3.40323     -0.00258      7.83465      2.59000      6.23530      3.88488   1186.47900   5132.74000      0.24186    181.24770
       2668.21920      6.12500   2381.50005   1069.25248      3.38876      3.34805      3.34994      3.32723      3.32856      0.00485      8.29560      2.62067      6.22081      3.81339   1152.69800   4703.88200      0.25021    175.30730
       2668.37160      6.12500   2368.24981   1084.33289      3.22238      3.20078      3.19276      3.17372      3.19304     -0.00068      7.33153      2.61618      6.21448      3.69994   1351.15100   5338.05000      0.21496    169.78080
       2668.52400      6.12500   2345.66550   1094.75616      3.31690      3.25538      3.25857      3.27652      3.27820     -0.00555      7.44886      2.62056      6.23530      3.70565   1254.03300   4963.94300      0.22316    166.44840
