~VERSION INFORMATION 
VERS  .    2.0                                     :CWLS Log ASCII Standard - VERSION 2.0
WRAP  .    NO                                      :One Line per Depth step
PROD  .    Schlumberger Technology Corp.           :LAS Producer
PROG  .    Horizon LASWriter 6.2.68624.3100        :LAS Program name and version
SOURCE.    AT-33-F section 6.125" Run 1/1/1-Log[2]/Down:Run&Pass Information
CREA  .    07/28/2016                              :LAS Creation date {MM/DD/YYYY}
#--------------------------------------------------
~WELL INFORMATION 
#MNEM           .UNIT                      DATA            :DESCRIPTION
#----            ------          --------------            -----------------------------
STRT            .m                   1518.36120            :START DEPTH
STOP            .m                   3242.61480            :STOP DEPTH
STEP            .m                       0.1524            :STEP
NULL            .                       -999.25            :NULL VALUE
COMP            .                         PTTEP            :COMPANY
WELL            .                       AT-33-F            :WELL NAME
FLD             .                ARTHIT / Block: 15A       :FIELD NAME
RIGN            .                          T-17            :Rig Name
RIGTYP          .                Tender Assisted           :Rig Type
SON             .                    DGEY-00011            :Service Order Number
SRVC            .                  Schlumberger            :SERVICE COMPANY
DATE            .                    07/28/2016            :LOG DATE(Composite Date for Composite LAP) (MM/DD/YYYY)
CLAB            .                     Rig Name:            :County Label
CNTY            .                          T-17            :COUNTY
SLAB            .                      Country:            :State/Province Label
STAT            .                      Thailand            :STATE or PROVINCE
PROV            .                      Thailand            :STATE or PROVINCE
CTRY            .                      Thailand            :COUNTRY
CONT_REGION     .                          Asia            :Continent Region
SECT            .                                          :Section
TOWN            .                                          :Township
RANG            .                                          :Range
API             .                                          :API NUMBER
UWI             .                                          :UNIQUE WELL ID
LUL             .                      Thailand            :Logging Unit Location
LUN             .                          7003            :Logging Unit Number
LOC             .                Gulf of Thailand          :FIELD LOCATION
FL1             .                X: 890 685.860 mE (DATUM: INDIAN 1975):Field Location Line 1
FL2             .                Y: 893 515.640 mN (UTM ZONE 47N):Field Location Line 2
LATI            .deg             8° 4' 7.168" N            :LATITUDE
LONG            .deg             102° 32' 38.971" E        :LONGITUDE
PDAT            .                           MSL            :Local Permanent Datum
LMF             .                            DF            :Logging Measured From
APD             .m                     29.00000            :Elevation of Depth Reference (LMF) Above Permanent Datum
EPD             .m                      0.00000            :Elevation of Permanent Datum (PDAT) above Mean Sea Level
EKB             .m                     29.00000            :Elevation of Kelly Bushing Above Permanent Datum
EDF             .m                     29.00000            :Elevation of Drill Floor Above Permanent Datum
EGL             .m                    -77.08000            :Elevation of Ground Level Above Permanent Datum
ECF             .m                      -999.25            :Elevation of Casing Flange above Permanent Datum
#--------------------------------------------------
~CURVE INFORMATION
#MNEM           .UNIT                  API CODE            :DESCRIPTION
#----            ------          --------------            -----------------------------
DEPT            .m                                         :                                                        Depth Index
BS              .in                                        :(RT)    (Borehole)              (6in)                   Bit Size
TENS            .lbf                                       :        (WLWorkflow)            (6in)                   Cable Tension
HTEN            .lbf                                       :        (LEH-QT)                (6in)                   Head Tension
AT10            .ohm.m                                     :        (QAIT-A)                (3in)                   Array Induction Two Foot Resistivity A10
AT20            .ohm.m                                     :        (QAIT-A)                (3in)                   Array Induction Two Foot Resistivity A20
AT30            .ohm.m                                     :        (QAIT-A)                (3in)                   Array Induction Two Foot Resistivity A30
AT60            .ohm.m                                     :        (QAIT-A)                (3in)                   Array Induction Two Foot Resistivity A60
AT90            .ohm.m                                     :        (QAIT-A)                (3in)                   Array Induction Two Foot Resistivity A90
DRHOLS          .g/cm3                                     :        (QLDT-B)                (6in)                   Density Correction Long Spacing
PEF             .                                          :        (QLDT-B)                (6in)                   Photoelectric Factor
RHOB            .g/cm3                                     :        (QLDT-B)                (6in)                   Bulk Density
CALI            .in                                        :        (QLDT-B)                (6in)                   Caliper
TNRA            .                                          :        (QCNT)                  (6in)                   Thermal Neutron Ratio
CFTC            .1/s                                       :        (QCNT)                  (6in)                   Corrected Far Thermal Count Rate
CNTC            .1/s                                       :        (QCNT)                  (6in)                   Corrected Near Thermal Count Rate
NPOR            .m3/m3                                     :        (QCNT)                  (6in)                   Enhanced Thermal Neutron Porosity in Selected Lithology
GR              .gAPI                                      :        (QTGC-B)                (6in)                   Gamma Ray
#-------------------------------------------------------------
#            DEPT           BS         TENS         HTEN         AT10         AT20         AT30         AT60         AT90       DRHOLS          PEF         RHOB         CALI         TNRA         CFTC         CNTC         NPOR           GR 
#                   (Borehole)  (WLWorkflo)     (LEH-QT)     (QAIT-A)     (QAIT-A)     (QAIT-A)     (QAIT-A)     (QAIT-A)     (QLDT-B)     (QLDT-B)     (QLDT-B)     (QLDT-B)       (QCNT)       (QCNT)       (QCNT)       (QCNT)     (QTGC-B) 
#                         (RT)                                                                                                                                                                                                                 
#                        (6in)        (6in)        (6in)        (3in)        (3in)        (3in)        (3in)        (3in)        (6in)        (6in)        (6in)        (6in)        (6in)        (6in)        (6in)        (6in)        (6in) 
~ASCII
# ...
       1875.89160      6.12500   1934.33326   1111.16698      5.43541      4.36943      3.88043      3.48032      3.38664     -0.09411      4.45548      2.10062      6.21448      4.00152   1203.38700   5365.42500      0.23276     64.14341
       1876.04400      6.12500   1928.75013   1109.39279      5.18080      4.24119      3.77091      3.39483      3.28554     -0.07887      4.04932      2.10222      6.18553      3.90707   1232.92200   5041.56900      0.24879     54.51781
       1876.19640      6.12500   1933.24990   1104.95754      4.97653      4.13597      3.68223      3.28929      3.21296     -0.06553      4.05832      2.09800      6.20000      3.81085   1245.59300   5123.61400      0.23468     47.19050
       1876.34880      6.12500   1917.75000   1104.95754      4.69036      3.73251      3.38572      3.06384      3.02965     -0.05401      3.72414      2.07586      6.20000      4.05252   1300.48000   5392.81300      0.22368     46.08790
       1876.50120      6.12500   1898.00008   1102.29625      4.33118      3.33507      3.05654      2.81216      2.81084     -0.03320      3.70130      2.09584      6.18553      4.07992   1152.72000   5616.35800      0.21385     49.10495
       1876.65360      6.12500   1899.49978   1086.10708      3.99412      3.12553      2.83983      2.64067      2.64036     -0.00896      3.60192      2.12661      6.20000      4.12239   1254.03400   5269.69600      0.24199     55.05397
       1876.80600      6.12500   1905.25017   1072.13566      4.20062      3.27501      2.98576      2.80716      2.85311     -0.01458      3.71528      2.14425      6.20000      3.89119   1207.59100   5173.80300      0.23621     61.41248
       1876.95840      6.12500   1900.74995   1081.89349      4.79008      3.64221      3.30577      3.00725      3.05546     -0.02199      3.94328      2.16231      6.20000      4.02488   1237.14500   5100.81400      0.23641     65.44891
       1877.11080      6.12500   1885.66662   1092.76030      5.29815      3.95174      3.53423      3.15335      3.23650     -0.05999      4.17461      2.11588      6.20000      4.05501   1135.82900   5265.05100      0.22746     68.32948
       1877.26320      6.12500   1885.25004   1090.32068      5.72525      4.10104      3.61851      3.19538      3.26985     -0.05629      3.87528      2.11823      6.20000      4.11208   1144.25600   5014.19800      0.25086     69.15651
       1877.41560      6.12500   1891.99993   1082.78058      6.01450      4.19630      3.66709      3.17885      3.23471     -0.06839      3.98482      2.10940      6.19183      4.05698   1176.62500   5068.87800      0.24953     70.24198
       1877.56800      6.12500   1903.66684   1087.88127      5.94269      4.16543      3.65910      3.16812      3.17640     -0.06774      4.04534      2.11373      6.20000      3.80088   1173.82800   5231.59800      0.24126     72.55718
       1877.72040      6.12500   1909.66677   1094.09072      6.09230      4.15902      3.58600      3.07947      2.98998     -0.03779      4.19602      2.15491      6.20000      3.61428   1498.93200   5324.44700      0.25949     74.59573
       1877.87280      6.12500   1897.25012   1087.65939      5.79945      3.91459      3.41841      2.93814      2.80286     -0.01025      4.04951      2.20691      6.20000      3.44785   1798.71500   6661.17400      0.17704     73.84740
       1878.02520      6.12500   1901.74990   1077.75386      5.80536      4.26675      3.63831      3.09134      2.83518     -0.02544      3.88505      2.23480      6.20632      3.45677   2085.84000   8171.32200      0.11070     69.73492
       1878.17760      6.12500   1907.33325   1075.24027      6.71210      5.09813      4.33595      3.55910      3.11856     -0.00447      4.65461      2.33248      6.20000      3.44135   2056.31200   7363.79000      0.13972     63.85200
       1878.33000      6.12500   1892.74990   1075.24027      8.72153      6.01510      5.09474      3.99399      3.40658      0.00816      4.59185      2.40450      6.20000      3.56860   1684.71600   6154.82400      0.21210     59.02429
       1878.48240      6.12500   1877.66656   1093.42551      7.90256      5.33169      4.58282      3.60437      3.09457     -0.00540      4.35187      2.38319      6.20000      3.84034   1186.47700   5137.31500      0.27142     56.81349
       1878.63480      6.12500   1873.74994   1086.99418      5.48384      3.97344      3.55162      3.03312      2.74646     -0.03188      3.84691      2.28253      6.20000      4.08491   1144.27300   5105.36400      0.27246     56.59547
       1878.78720      6.12500   1879.00013   1093.64717      4.37634      3.30623      3.08415      2.72473      2.51648     -0.02044      3.64356      2.21873      6.20000      4.12482   1144.25600   5087.20600      0.24848     57.47909
       1878.93960      6.12500   1913.00001   1092.31653      3.89967      3.12899      2.96836      2.66349      2.49377     -0.04769      3.44936      2.12660      6.24342      4.08646   1176.62500   5246.81300      0.23216     59.52168
       1879.09200      6.12500   1918.25020   1091.05985      3.93711      3.20500      3.03895      2.79016      2.66490     -0.04013      3.52918      2.12347      6.20000      3.92674   1203.36600   5219.43100      0.21257     62.38906
       1879.24440      6.12500   1915.00014   1098.08265      4.29123      3.47155      3.35203      3.13118      3.02752     -0.02639      3.54758      2.17188      6.21448      3.71962   1308.92700   5141.86500      0.20471     69.40019
       1879.39680      6.12500   1921.00006   1094.09072      4.73838      3.81318      3.72110      3.46778      3.39128     -0.02071      4.03965      2.25278      6.20000      3.62476   1287.55100   4877.25400      0.20869     77.42979
       1879.54920      6.12500   1922.00001   1093.64717      4.99486      3.96357      3.89916      3.64478      3.64652     -0.01182      4.41951      2.34394      6.20000      3.73398   1237.16500   4985.71400      0.21710     85.76242
       1879.70160      6.12500   1908.66682   1092.24279      5.12423      4.15129      4.11718      3.87642      3.95366      0.00018      5.43905      2.42125      6.20000      3.81491   1140.03000   4881.87900      0.23158     90.26202
       1879.85400      6.12500   1896.50016   1088.76837      5.22144      4.41655      4.38649      4.13293      4.29539     -0.02521      5.10830      2.42321      6.21448      3.80702   1292.03800   5233.11400      0.20535     92.54860
       1880.00640      6.12500   1909.25020   1082.78058      5.39399      4.74349      4.70228      4.43610      4.67660     -0.04387      4.46235      2.41105      6.20000      3.66150   1363.81400   5461.24900      0.18336     94.11767
       1880.15880      6.12500   1911.49986   1080.78451      5.36647      4.83921      4.76718      4.49452      4.82032     -0.02610      3.95044      2.42441      6.18553      3.64030   1346.94800   5132.74000      0.20741     98.44537
       1880.31120      6.12500   1902.33328   1085.66353      5.17565      4.76162      4.65444      4.43702      4.71153     -0.04885      4.16566      2.38485      6.20000      3.52166   1325.81400   5278.83300      0.19936    104.34000
       1880.46360      6.12500   1899.49978   1088.32482      5.03677      4.66756      4.54142      4.35757      4.56350     -0.03063      4.48801      2.40828      6.20000      3.58789   1446.89000   5237.67600      0.19308    108.61820
       1880.61600      6.12500   1917.75000   1083.66768      4.96221      4.65498      4.51246      4.34723      4.48160     -0.00763      4.79027      2.43766      6.20632      3.48460   1372.25900   5523.71700      0.17183    108.25370
       1880.76840      6.12500   1927.24998   1079.67597      4.94511      4.65867      4.51545      4.35875      4.43304      0.00840      4.24978      2.44961      6.20000      3.57238   1418.70800   5173.80200      0.20373    106.36910
       1880.92080      6.12500   1914.33335   1083.44579      4.93064      4.62867      4.49328      4.33998      4.39314     -0.00237      4.61608      2.44018      6.20000      3.60631   1321.61200   5160.12600      0.20684    104.26660
