~VERSION INFORMATION 
VERS  .    2.0                                     :CWLS Log ASCII Standard - VERSION 2.0
WRAP  .    NO                                      :One Line per Depth step
PROD  .    Schlumberger Technology Corp.           :LAS Producer
PROG  .    Horizon LASWriter 6.2.68624.3100        :LAS Program name and version
SOURCE.    AT-33-F section 6.125" Run 1/1/1-Log[3]/Up:Run&Pass Information
CREA  .    07/28/2016                              :LAS Creation date {MM/DD/YYYY}
#--------------------------------------------------
~WELL INFORMATION 
#MNEM           .UNIT                      DATA            :DESCRIPTION
#----            ------          --------------            -----------------------------
STRT            .m                   3247.79640            :START DEPTH
STOP            .m                   1513.78920            :STOP DEPTH
STEP            .m                      -0.1524            :STEP
NULL            .                       -999.25            :NULL VALUE
COMP            .                         PTTEP            :COMPANY
WELL            .                       AT-33-F            :WELL NAME
FLD             .                ARTHIT / Block: 15A       :FIELD NAME
RIGN            .                          T-17            :Rig Name
RIGTYP          .                Tender Assisted           :Rig Type
SON             .                    DGEY-00011            :Service Order Number
SRVC            .                  Schlumberger            :SERVICE COMPANY
DATE            .                    07/28/2016            :LOG DATE(Composite Date for Composite LAP) (MM/DD/YYYY)
CLAB            .                     Rig Name:            :County Label
CNTY            .                          T-17            :COUNTY
SLAB            .                      Country:            :State/Province Label
STAT            .                      Thailand            :STATE or PROVINCE
PROV            .                      Thailand            :STATE or PROVINCE
CTRY            .                      Thailand            :COUNTRY
CONT_REGION     .                          Asia            :Continent Region
SECT            .                                          :Section
TOWN            .                                          :Township
RANG            .                                          :Range
API             .                                          :API NUMBER
UWI             .                                          :UNIQUE WELL ID
LUL             .                      Thailand            :Logging Unit Location
LUN             .                          7003            :Logging Unit Number
LOC             .                Gulf of Thailand          :FIELD LOCATION
FL1             .                X: 890 685.860 mE (DATUM: INDIAN 1975):Field Location Line 1
FL2             .                Y: 893 515.640 mN (UTM ZONE 47N):Field Location Line 2
LATI            .deg             8° 4' 7.168" N            :LATITUDE
LONG            .deg             102° 32' 38.971" E        :LONGITUDE
PDAT            .                           MSL            :Local Permanent Datum
LMF             .                            DF            :Logging Measured From
APD             .m                     29.00000            :Elevation of Depth Reference (LMF) Above Permanent Datum
EPD             .m                      0.00000            :Elevation of Permanent Datum (PDAT) above Mean Sea Level
EKB             .m                     29.00000            :Elevation of Kelly Bushing Above Permanent Datum
EDF             .m                     29.00000            :Elevation of Drill Floor Above Permanent Datum
EGL             .m                    -77.08000            :Elevation of Ground Level Above Permanent Datum
ECF             .m                      -999.25            :Elevation of Casing Flange above Permanent Datum
#--------------------------------------------------
~CURVE INFORMATION
#MNEM           .UNIT                  API CODE            :DESCRIPTION
#----            ------          --------------            -----------------------------
DEPT            .m                                         :                                                        Depth Index
BS              .in                                        :(RT)    (Borehole)              (6in)                   Bit Size
TENS            .lbf                                       :        (WLWorkflow)            (6in)                   Cable Tension
HTEN            .lbf                                       :        (LEH-QT)                (6in)                   Head Tension
AT10            .ohm.m                                     :        (QAIT-A)                (3in)                   Array Induction Two Foot Resistivity A10
AT20            .ohm.m                                     :        (QAIT-A)                (3in)                   Array Induction Two Foot Resistivity A20
AT30            .ohm.m                                     :        (QAIT-A)                (3in)                   Array Induction Two Foot Resistivity A30
AT60            .ohm.m                                     :        (QAIT-A)                (3in)                   Array Induction Two Foot Resistivity A60
AT90            .ohm.m                                     :        (QAIT-A)                (3in)                   Array Induction Two Foot Resistivity A90
DRHOLS          .g/cm3                                     :        (QLDT-B)                (6in)                   Density Correction Long Spacing
PEF             .                                          :        (QLDT-B)                (6in)                   Photoelectric Factor
RHOB            .g/cm3                                     :        (QLDT-B)                (6in)                   Bulk Density
CALI            .in                                        :        (QLDT-B)                (6in)                   Caliper
TNRA            .                                          :        (QCNT)                  (6in)                   Thermal Neutron Ratio
CFTC            .1/s                                       :        (QCNT)                  (6in)                   Corrected Far Thermal Count Rate
CNTC            .1/s                                       :        (QCNT)                  (6in)                   Corrected Near Thermal Count Rate
NPOR            .m3/m3                                     :        (QCNT)                  (6in)                   Enhanced Thermal Neutron Porosity in Selected Lithology
GR              .gAPI                                      :        (QTGC-B)                (6in)                   Gamma Ray
#-------------------------------------------------------------
#            DEPT           BS         TENS         HTEN         AT10         AT20         AT30         AT60         AT90       DRHOLS          PEF         RHOB         CALI         TNRA         CFTC         CNTC         NPOR           GR 
#                   (Borehole)  (WLWorkflo)     (LEH-QT)     (QAIT-A)     (QAIT-A)     (QAIT-A)     (QAIT-A)     (QAIT-A)     (QLDT-B)     (QLDT-B)     (QLDT-B)     (QLDT-B)       (QCNT)       (QCNT)       (QCNT)       (QCNT)     (QTGC-B) 
#                         (RT)                                                                                                                                                                                                                 
#                        (6in)        (6in)        (6in)        (3in)        (3in)        (3in)        (3in)        (3in)        (6in)        (6in)        (6in)        (6in)        (6in)        (6in)        (6in)        (6in)        (6in) 
~ASCII
# ...
       1988.66760      6.12500   5179.85658   1258.75496      2.46460      2.41819      2.39786      2.37820      2.33944     -0.02346      5.57085      2.56350      6.19815      3.92510   1175.88500   4902.23100      0.22389    122.20970
       1988.51520      6.12500   5170.50003   1254.20864      2.34846      2.34158      2.32342      2.30468      2.26974     -0.01913      5.47015      2.57548      6.19815      3.95016   1159.00600   5101.98000      0.21164    126.32090
       1988.36280      6.12500   5133.71454   1232.91879      2.29080      2.26848      2.24793      2.23682      2.20466     -0.02427      6.10659      2.57134      6.20541      3.96053   1126.73200   4765.81300      0.24566    129.83400
       1988.21040      6.12500   5101.74896   1227.26349      2.39625      2.36071      2.32711      2.31289      2.28305     -0.02071      6.67051      2.57412      6.19815      3.81806   1125.30700   4729.17500      0.23988    127.74350
       1988.05800      6.12500   5069.71369   1237.00559      2.60836      2.57411      2.54842      2.53928      2.49699     -0.02248      6.64645      2.55641      6.20541      3.81374   1310.09800   5162.24200      0.20825    121.45790
       1987.90560      6.12500   5111.24939   1233.02962      2.76456      2.68697      2.64861      2.63522      2.59684     -0.03161      6.24880      2.52804      6.21266      3.74008   1224.44300   5161.94600      0.19534    113.53030
       1987.75320      6.12500   5116.42898   1238.90657      2.84009      2.77385      2.74616      2.73493      2.69371     -0.04317      6.16092      2.49846      6.21266      3.73164   1331.81200   5279.13200      0.20227    105.90720
       1987.60080      6.12500   5155.75032   1234.80381      2.95075      2.87335      2.85047      2.82529      2.78342     -0.02597      5.96429      2.51559      6.21266      3.66405   1266.79800   4956.98100      0.21891    102.46030
       1987.44840      6.12500   5135.00045   1238.57386      3.01266      2.94285      2.92183      2.91702      2.88222     -0.02684      6.21325      2.51182      6.21266      3.73365   1285.67400   5138.48000      0.21027    103.01840
       1987.29600      6.12500   5102.37393   1232.95049      2.86615      2.81045      2.76841      2.74309      2.69800     -0.02893      6.40640      2.51391      6.22716      3.71793   1259.43300   5276.30700      0.18987    105.04210
       1987.14360      6.12500   5134.57107   1231.69897      2.78097      2.65593      2.61627      2.58320      2.56843     -0.02279      6.76931      2.52521      6.21266      3.82466   1296.22000   5006.04600      0.21685    107.09630
       1986.99120      6.12500   5110.87396   1239.90450      2.73245      2.60100      2.57599      2.54433      2.45672     -0.02408      7.12569      2.53352      6.21266      3.77622   1122.05200   4872.60200      0.22343    107.85120
       1986.83880      6.12500   5118.62537   1237.35404      2.71359      2.55299      2.52259      2.48435      2.34987     -0.03695      6.88249      2.52068      6.21674      3.81603   1201.53900   4845.16300      0.22552    107.40720
       1986.68640      6.12500   5133.14353   1251.88007      2.67495      2.49341      2.44462      2.41112      2.27702     -0.04920      6.82682      2.49769      6.20632      3.82802   1220.22000   4869.95300      0.21480    105.55400
       1986.53400      6.12500   5117.37543   1267.84758      2.63084      2.42594      2.35049      2.31146      2.18213     -0.04918      6.68964      2.48907      6.21357      3.89959   1146.03500   5021.30700      0.20296    106.32120
       1986.38160      6.12500   5169.85708   1256.20450      2.40580      2.35645      2.26400      2.20315      2.08286     -0.05240      7.19653      2.48161      6.22081      4.05825   1112.66600   4744.83300      0.22581    112.48130
       1986.22920      6.12500   5166.57037   1253.22645      2.15993      2.13492      2.05254      2.02498      1.91351     -0.04211      7.56842      2.49265      6.22081      4.08870    990.11570   4460.65100      0.25077    121.36520
       1986.07680      6.12500   5138.24894   1233.02962      1.95399      1.95137      1.87340      1.83404      1.76370     -0.03841      7.53559      2.48988      6.22081      4.17392    940.95060   4215.59800      0.26785    129.73300
       1985.92440      6.12500   5112.57126   1231.30286      1.87059      1.83738      1.77096      1.72707      1.67745     -0.03528      7.16177      2.49371      6.22081      4.32347    939.44850   4265.58900      0.26985    134.49860
       1985.77200      6.12500   5074.57181   1229.70312      1.84438      1.76072      1.70613      1.66235      1.62962     -0.02624      7.17351      2.52397      6.22081      4.36533    859.01270   4286.31700      0.26040    139.22090
       1985.61960      6.12500   5077.75061   1210.96350      1.79290      1.72090      1.67091      1.62931      1.62856     -0.02425      7.77902      2.55713      6.22081      4.40980    947.89270   4375.27700      0.25343    140.34420
       1985.46720      6.12500   5080.57196   1209.18930      1.85324      1.78940      1.74818      1.71200      1.74407     -0.01122      8.31160      2.58584      6.22081      4.17577    909.89370   4262.51100      0.25395    137.58840
       1985.31480      6.12500   5058.87565   1232.69690      1.90444      1.85343      1.82432      1.78899      1.75433     -0.02711      8.23354      2.56859      6.21357      4.35145    965.08170   4083.68700      0.28170    132.94660
       1985.16240      6.12500   5092.57226   1258.20035      1.99044      1.89213      1.86818      1.84129      1.81732     -0.03755      7.07123      2.55702      6.22716      4.42032    861.41500   4466.52900      0.24953    133.60400
       1985.01000      6.12500   5140.75106   1264.29919      2.03099      1.94556      1.92627      1.90266      1.87120     -0.03345      7.51673      2.57717      6.20949      4.59447    880.33840   4320.50300      0.27294    135.78650
       1984.85760      6.12500   5184.42919   1259.68949      2.07309      2.01024      1.98922      1.97856      1.92504     -0.01584      7.38719      2.59942      6.20632      4.56861    871.88470   4181.38200      0.28898    133.59350
       1984.70520      6.12500   5201.14374   1266.96026      2.10655      2.05289      2.02096      1.99985      1.96855     -0.03365      7.61834      2.55296      6.21357      4.73823    825.44830   4210.88000      0.29532    125.96080
       1984.55280      6.12500   5172.87626   1245.89206      2.05834      2.02728      1.98188      1.96101      1.94307     -0.02475      7.05880      2.54170      6.21357      4.76176    743.19070   4055.91500      0.30145    120.51020
       1984.40040      6.12500   5142.71365   1221.79861      2.04168      2.02577      1.97246      1.93277      1.93622     -0.02995      6.88275      2.52733      6.22081      4.49869    833.89240   4062.76600      0.29192    125.89890
       1984.24800      6.12500   5097.85752   1207.63677      2.08425      2.08883      2.04939      2.00507      2.03700     -0.02239      7.12575      2.53729      6.21357      4.20632    933.11740   3964.64100      0.27207    135.07470
       1984.09560      6.12500   5083.85642   1215.08200      2.15315      2.12425      2.11341      2.08521      2.13493     -0.01872      7.31127      2.55296      6.20632      4.11768    987.99850   4455.86000      0.23352    140.17870
       1983.94320      6.12500   5076.62431   1215.95336      2.19964      2.08769      2.09168      2.06847      2.11363     -0.01939      7.68786      2.55794      6.20632      4.19032    979.66790   4491.58500      0.23303    135.96930
       1983.79080      6.12500   5086.57211   1220.27778      2.21848      2.09241      2.12991      2.12895      2.16163     -0.01877      7.43587      2.54492      6.21357      4.15677   1028.10600   4610.24500      0.24732    124.09200
       1983.63840      6.12500   5092.71389   1224.07952      2.45127      2.38244      2.42640      2.42601      2.47594      0.00675      7.31341      2.53876      6.21357      4.18525   1021.78200   4497.14400      0.23239    112.31870
