~VERSION INFORMATION 
VERS  .    2.0                                     :CWLS Log ASCII Standard - VERSION 2.0
WRAP  .    NO                                      :One Line per Depth step
PROD  .    Schlumberger Technology Corp.           :LAS Producer
PROG  .    Horizon LASWriter 6.2.68624.3100        :LAS Program name and version
SOURCE.    AT-33-F section 6.125" Run 1/1/1-Log[3]/Up:Run&Pass Information
CREA  .    07/28/2016                              :LAS Creation date {MM/DD/YYYY}
#--------------------------------------------------
~WELL INFORMATION 
#MNEM           .UNIT                      DATA            :DESCRIPTION
#----            ------          --------------            -----------------------------
STRT            .m                   3247.79640            :START DEPTH
STOP            .m                   1513.78920            :STOP DEPTH
STEP            .m                      -0.1524            :STEP
NULL            .                       -999.25            :NULL VALUE
COMP            .                         PTTEP            :COMPANY
WELL            .                       AT-33-F            :WELL NAME
FLD             .                ARTHIT / Block: 15A       :FIELD NAME
RIGN            .                          T-17            :Rig Name
RIGTYP          .                Tender Assisted           :Rig Type
SON             .                    DGEY-00011            :Service Order Number
SRVC            .                  Schlumberger            :SERVICE COMPANY
DATE            .                    07/28/2016            :LOG DATE(Composite Date for Composite LAP) (MM/DD/YYYY)
CLAB            .                     Rig Name:            :County Label
CNTY            .                          T-17            :COUNTY
SLAB            .                      Country:            :State/Province Label
STAT            .                      Thailand            :STATE or PROVINCE
PROV            .                      Thailand            :STATE or PROVINCE
CTRY            .                      Thailand            :COUNTRY
CONT_REGION     .                          Asia            :Continent Region
SECT            .                                          :Section
TOWN            .                                          :Township
RANG            .                                          :Range
API             .                                          :API NUMBER
UWI             .                                          :UNIQUE WELL ID
LUL             .                      Thailand            :Logging Unit Location
LUN             .                          7003            :Logging Unit Number
LOC             .                Gulf of Thailand          :FIELD LOCATION
FL1             .                X: 890 685.860 mE (DATUM: INDIAN 1975):Field Location Line 1
FL2             .                Y: 893 515.640 mN (UTM ZONE 47N):Field Location Line 2
LATI            .deg             8° 4' 7.168" N            :LATITUDE
LONG            .deg             102° 32' 38.971" E        :LONGITUDE
PDAT            .                           MSL            :Local Permanent Datum
LMF             .                            DF            :Logging Measured From
APD             .m                     29.00000            :Elevation of Depth Reference (LMF) Above Permanent Datum
EPD             .m                      0.00000            :Elevation of Permanent Datum (PDAT) above Mean Sea Level
EKB             .m                     29.00000            :Elevation of Kelly Bushing Above Permanent Datum
EDF             .m                     29.00000            :Elevation of Drill Floor Above Permanent Datum
EGL             .m                    -77.08000            :Elevation of Ground Level Above Permanent Datum
ECF             .m                      -999.25            :Elevation of Casing Flange above Permanent Datum
#--------------------------------------------------
~CURVE INFORMATION
#MNEM           .UNIT                  API CODE            :DESCRIPTION
#----            ------          --------------            -----------------------------
DEPT            .m                                         :                                                        Depth Index
BS              .in                                        :(RT)    (Borehole)              (6in)                   Bit Size
TENS            .lbf                                       :        (WLWorkflow)            (6in)                   Cable Tension
HTEN            .lbf                                       :        (LEH-QT)                (6in)                   Head Tension
AT10            .ohm.m                                     :        (QAIT-A)                (3in)                   Array Induction Two Foot Resistivity A10
AT20            .ohm.m                                     :        (QAIT-A)                (3in)                   Array Induction Two Foot Resistivity A20
AT30            .ohm.m                                     :        (QAIT-A)                (3in)                   Array Induction Two Foot Resistivity A30
AT60            .ohm.m                                     :        (QAIT-A)                (3in)                   Array Induction Two Foot Resistivity A60
AT90            .ohm.m                                     :        (QAIT-A)                (3in)                   Array Induction Two Foot Resistivity A90
DRHOLS          .g/cm3                                     :        (QLDT-B)                (6in)                   Density Correction Long Spacing
PEF             .                                          :        (QLDT-B)                (6in)                   Photoelectric Factor
RHOB            .g/cm3                                     :        (QLDT-B)                (6in)                   Bulk Density
CALI            .in                                        :        (QLDT-B)                (6in)                   Caliper
TNRA            .                                          :        (QCNT)                  (6in)                   Thermal Neutron Ratio
CFTC            .1/s                                       :        (QCNT)                  (6in)                   Corrected Far Thermal Count Rate
CNTC            .1/s                                       :        (QCNT)                  (6in)                   Corrected Near Thermal Count Rate
NPOR            .m3/m3                                     :        (QCNT)                  (6in)                   Enhanced Thermal Neutron Porosity in Selected Lithology
GR              .gAPI                                      :        (QTGC-B)                (6in)                   Gamma Ray
#-------------------------------------------------------------
#            DEPT           BS         TENS         HTEN         AT10         AT20         AT30         AT60         AT90       DRHOLS          PEF         RHOB         CALI         TNRA         CFTC         CNTC         NPOR           GR 
#                   (Borehole)  (WLWorkflo)     (LEH-QT)     (QAIT-A)     (QAIT-A)     (QAIT-A)     (QAIT-A)     (QAIT-A)     (QLDT-B)     (QLDT-B)     (QLDT-B)     (QLDT-B)       (QCNT)       (QCNT)       (QCNT)       (QCNT)     (QTGC-B) 
#                         (RT)                                                                                                                                                                                                                 
#                        (6in)        (6in)        (6in)        (3in)        (3in)        (3in)        (3in)        (3in)        (6in)        (6in)        (6in)        (6in)        (6in)        (6in)        (6in)        (6in)        (6in) 
~ASCII
# ...
       1651.86360      6.12500   4528.25011   1198.87709      4.75267      4.23579      4.11430      3.96251      3.77131     -0.02522      5.47578      2.45974      6.14837      3.46062   1636.00500   6102.07900      0.17035     91.83478
       1651.71120      6.12500   4517.28617   1199.76396      5.10282      4.53757      4.38111      4.21056      3.98271     -0.03058      5.30163      2.45818      6.14837      3.28911   1570.66400   5714.28400      0.18937     93.58657
       1651.55880      6.12500   4508.12521   1190.24376      5.83711      4.92959      4.66656      4.47695      4.34298     -0.01074      5.83844      2.50457      6.15561      3.20603   1783.88600   5870.02100      0.17954     96.25082
       1651.40640      6.12500   4478.85733   1189.11904      5.59752      4.85633      4.56460      4.40749      4.30662      0.01273      5.79592      2.54523      6.15561      3.19537   1796.72100   6217.79700      0.15125     98.50876
       1651.25400      6.12500   4495.25040   1183.46397      4.29859      3.85957      3.66283      3.54514      3.52244      0.02312      6.71100      2.57262      6.15561      3.32621   1816.76500   6546.90400      0.12622    103.70850
       1651.10160      6.12500   4495.71351   1181.02457      2.98670      2.77099      2.65505      2.60449      2.62667      0.03233      7.44625      2.55899      6.14837      3.42497   1650.88300   6132.32200      0.14260    117.19180
       1650.94920      6.12500   4477.62538   1191.25764      2.33949      2.21002      2.13624      2.12109      2.11774      0.04801      9.47778      2.54949      6.14837      3.69245   1239.32900   4685.48400      0.23435    138.11040
       1650.79680      6.12500   4503.99997   1198.10083      2.11469      1.99169      1.93437      1.92246      1.92716      0.05732     13.00807      2.54162      6.16285      4.16161    949.99910   4246.87100      0.28654    155.48910
       1650.64440      6.12500   4517.49974   1190.00636      2.06396      1.90993      1.86048      1.85282      1.85519      0.07187     18.25688      2.54610      6.16285      4.44329    786.54250   4117.47700      0.28150    159.64770
       1650.49200      6.12500   4502.85794   1186.79047      2.00413      1.87390      1.82786      1.83466      1.83073      0.08037     17.28005      2.53602      6.16285      4.42449    854.99950   4012.91100      0.27332    155.75210
       1650.33960      6.12500   4516.87477   1189.23009      1.95186      1.82965      1.79036      1.78851      1.78859      0.07352     11.18335      2.50636      6.16285      4.37414    920.54570   4059.12600      0.26155    155.75180
       1650.18720      6.12500   4499.71511   1193.28542      1.89555      1.78000      1.74611      1.72731      1.73463      0.07692      9.81846      2.48529      6.14837      4.47402    808.24810   4099.22800      0.25455    167.54880
       1650.03480      6.12500   4505.00036   1195.43976      1.83314      1.72335      1.69627      1.67647      1.67827      0.08616     10.63871      2.48175      6.15561      4.49423    821.21950   4120.17800      0.26538    185.06580
       1649.88240      6.12500   4520.37505   1202.42525      1.82669      1.71432      1.69084      1.66344      1.66611      0.07629     11.69318      2.46777      6.15561      4.55337    863.53370   3864.27300      0.28492    193.51720
       1649.73000      6.12500   4521.00002   1205.19737      1.87145      1.73723      1.70320      1.66942      1.67154      0.07607     11.37107      2.48287      6.16285      4.48040    781.11070   4111.30500      0.26152    181.04710
       1649.57760      6.12500   4534.28623   1198.10083      1.86540      1.74364      1.71950      1.68106      1.68461      0.08637     12.03588      2.52277      6.15561      4.47341    813.08180   3887.07800      0.27412    161.10130
       1649.42520      6.12500   4511.37595   1200.25517      1.87997      1.73978      1.73412      1.69312      1.69353      0.07566     16.20767      2.52521      6.15561      4.37631    897.22160   3994.70700      0.25356    148.77310
       1649.27280      6.12500   4499.42960   1202.20359      1.88406      1.75931      1.73660      1.69614      1.69689      0.05494     14.15140      2.51159      6.15561      4.20321    829.71730   4106.05300      0.23117    149.47930
       1649.12040      6.12500   4522.28592   1200.42940      1.88941      1.77851      1.75574      1.71241      1.70980      0.04331     10.30581      2.50089      6.14837      4.31338    890.27840   3756.74000      0.27534    153.46410
       1648.96800      6.12500   4522.87492   1200.20774      1.86111      1.76395      1.73900      1.70093      1.70033      0.03783      8.65252      2.48021      6.15561      4.30102    839.62080   4038.00700      0.24271    154.91990
       1648.81560      6.12500   4500.57163   1193.03184      1.82620      1.73519      1.71310      1.67326      1.68305      0.05002      8.68754      2.47316      6.14837      4.61312    831.84280   4083.25200      0.25280    153.66180
       1648.66320      6.12500   4514.99987   1188.67571      1.79413      1.72510      1.71490      1.67858      1.69391      0.04604      8.45775      2.44581      6.16914      4.70262    717.77640   3754.77800      0.29100    150.91400
       1648.51080      6.12500   4508.25110   1196.70679      1.81041      1.74518      1.74008      1.70836      1.72468      0.05512      8.53809      2.43568      6.15874      4.66583    734.66690   3746.31600      0.29506    146.81150
       1648.35840      6.12500   4508.99972   1195.66120      1.97405      1.87657      1.87647      1.84262      1.90051      0.06419      8.18620      2.39082      6.15463      4.70836    740.69920   3547.54500      0.28517    147.99730
       1648.20600      6.12500   4515.71476   1193.99806      2.16398      2.06665      2.09492      2.06244      2.11685      0.04663      7.10878      2.32182      6.14837      4.67829    686.17760   3684.06200      0.27907    152.88510
       1648.05360      6.12500   4511.74913   1205.83111      2.39893      2.26721      2.25333      2.19178      2.22825      0.02328      6.52996      2.28116      6.16285      4.86557    654.44350   3273.44500      0.38753    152.72870
       1647.90120      6.12500   4517.71331   1201.87087      2.79377      2.53854      2.59800      2.51957      2.58320      0.00682      7.10161      2.29329      6.14837      4.75128    654.44160   3531.60100      0.37159    138.56320
       1647.74880      6.12500   4524.12486   1202.42525      3.39432      3.08392      3.17389      3.08692      3.15554     -0.01247      7.57338      2.36829      6.14112      4.61609    926.86490   4633.02000      0.23605    113.53160
       1647.59640      6.12500   4514.57048   1194.80603      3.70233      3.38825      3.40918      3.23999      3.29061     -0.02460      8.14990      2.46654      6.15150      4.25621   1116.77600   5096.72200      0.19469     96.23373
       1647.44400      6.12500   4519.85799   1202.53608      3.47745      3.22588      3.20922      2.98762      3.01804     -0.01614      8.23908      2.52908      6.14837      3.91396   1141.19900   4827.43900      0.21801     93.36897
       1647.29160      6.12500   4515.37530   1197.65728      3.31701      3.13270      3.07434      2.90312      2.86497     -0.02733      7.66475      2.50526      6.15463      3.82054   1235.14800   4804.10600      0.23064     99.03410
       1647.13920      6.12500   4513.57233   1194.10912      3.24934      3.03540      2.97856      2.85782      2.79494     -0.03279      6.41849      2.46170      6.16914      3.95861   1156.88600   4929.56700      0.22571    102.92490
       1646.98680      6.12500   4512.74953   1197.72068      3.19190      2.98311      2.92884      2.80431      2.72544     -0.02984      4.77986      2.41272      6.15463      4.01268   1110.44200   5194.18400      0.20297    103.49450
       1646.83440      6.12500   4505.57138   1201.53816      3.14685      2.93225      2.86806      2.73054      2.65045     -0.01092      4.47952      2.41756      6.16189      3.90758   1256.11300   5105.73600      0.20758    104.34100
