~VERSION INFORMATION 
VERS  .    2.0                                     :CWLS Log ASCII Standard - VERSION 2.0
WRAP  .    NO                                      :One Line per Depth step
PROD  .    Schlumberger Technology Corp.           :LAS Producer
PROG  .    Horizon LASWriter 6.2.68624.3100        :LAS Program name and version
SOURCE.    AT-33-F section 6.125" Run 1/1/1-Log[3]/Up:Run&Pass Information
CREA  .    07/28/2016                              :LAS Creation date {MM/DD/YYYY}
#--------------------------------------------------
~WELL INFORMATION 
#MNEM           .UNIT                      DATA            :DESCRIPTION
#----            ------          --------------            -----------------------------
STRT            .m                   3247.79640            :START DEPTH
STOP            .m                   1513.78920            :STOP DEPTH
STEP            .m                      -0.1524            :STEP
NULL            .                       -999.25            :NULL VALUE
COMP            .                         PTTEP            :COMPANY
WELL            .                       AT-33-F            :WELL NAME
FLD             .                ARTHIT / Block: 15A       :FIELD NAME
RIGN            .                          T-17            :Rig Name
RIGTYP          .                Tender Assisted           :Rig Type
SON             .                    DGEY-00011            :Service Order Number
SRVC            .                  Schlumberger            :SERVICE COMPANY
DATE            .                    07/28/2016            :LOG DATE(Composite Date for Composite LAP) (MM/DD/YYYY)
CLAB            .                     Rig Name:            :County Label
CNTY            .                          T-17            :COUNTY
SLAB            .                      Country:            :State/Province Label
STAT            .                      Thailand            :STATE or PROVINCE
PROV            .                      Thailand            :STATE or PROVINCE
CTRY            .                      Thailand            :COUNTRY
CONT_REGION     .                          Asia            :Continent Region
SECT            .                                          :Section
TOWN            .                                          :Township
RANG            .                                          :Range
API             .                                          :API NUMBER
UWI             .                                          :UNIQUE WELL ID
LUL             .                      Thailand            :Logging Unit Location
LUN             .                          7003            :Logging Unit Number
LOC             .                Gulf of Thailand          :FIELD LOCATION
FL1             .                X: 890 685.860 mE (DATUM: INDIAN 1975):Field Location Line 1
FL2             .                Y: 893 515.640 mN (UTM ZONE 47N):Field Location Line 2
LATI            .deg             8° 4' 7.168" N            :LATITUDE
LONG            .deg             102° 32' 38.971" E        :LONGITUDE
PDAT            .                           MSL            :Local Permanent Datum
LMF             .                            DF            :Logging Measured From
APD             .m                     29.00000            :Elevation of Depth Reference (LMF) Above Permanent Datum
EPD             .m                      0.00000            :Elevation of Permanent Datum (PDAT) above Mean Sea Level
EKB             .m                     29.00000            :Elevation of Kelly Bushing Above Permanent Datum
EDF             .m                     29.00000            :Elevation of Drill Floor Above Permanent Datum
EGL             .m                    -77.08000            :Elevation of Ground Level Above Permanent Datum
ECF             .m                      -999.25            :Elevation of Casing Flange above Permanent Datum
#--------------------------------------------------
~CURVE INFORMATION
#MNEM           .UNIT                  API CODE            :DESCRIPTION
#----            ------          --------------            -----------------------------
DEPT            .m                                         :                                                        Depth Index
BS              .in                                        :(RT)    (Borehole)              (6in)                   Bit Size
TENS            .lbf                                       :        (WLWorkflow)            (6in)                   Cable Tension
HTEN            .lbf                                       :        (LEH-QT)                (6in)                   Head Tension
AT10            .ohm.m                                     :        (QAIT-A)                (3in)                   Array Induction Two Foot Resistivity A10
AT20            .ohm.m                                     :        (QAIT-A)                (3in)                   Array Induction Two Foot Resistivity A20
AT30            .ohm.m                                     :        (QAIT-A)                (3in)                   Array Induction Two Foot Resistivity A30
AT60            .ohm.m                                     :        (QAIT-A)                (3in)                   Array Induction Two Foot Resistivity A60
AT90            .ohm.m                                     :        (QAIT-A)                (3in)                   Array Induction Two Foot Resistivity A90
DRHOLS          .g/cm3                                     :        (QLDT-B)                (6in)                   Density Correction Long Spacing
PEF             .                                          :        (QLDT-B)                (6in)                   Photoelectric Factor
RHOB            .g/cm3                                     :        (QLDT-B)                (6in)                   Bulk Density
CALI            .in                                        :        (QLDT-B)                (6in)                   Caliper
TNRA            .                                          :        (QCNT)                  (6in)                   Thermal Neutron Ratio
CFTC            .1/s                                       :        (QCNT)                  (6in)                   Corrected Far Thermal Count Rate
CNTC            .1/s                                       :        (QCNT)                  (6in)                   Corrected Near Thermal Count Rate
NPOR            .m3/m3                                     :        (QCNT)                  (6in)                   Enhanced Thermal Neutron Porosity in Selected Lithology
GR              .gAPI                                      :        (QTGC-B)                (6in)                   Gamma Ray
#-------------------------------------------------------------
#            DEPT           BS         TENS         HTEN         AT10         AT20         AT30         AT60         AT90       DRHOLS          PEF         RHOB         CALI         TNRA         CFTC         CNTC         NPOR           GR 
#                   (Borehole)  (WLWorkflo)     (LEH-QT)     (QAIT-A)     (QAIT-A)     (QAIT-A)     (QAIT-A)     (QAIT-A)     (QLDT-B)     (QLDT-B)     (QLDT-B)     (QLDT-B)       (QCNT)       (QCNT)       (QCNT)       (QCNT)     (QTGC-B) 
#                         (RT)                                                                                                                                                                                                                 
#                        (6in)        (6in)        (6in)        (3in)        (3in)        (3in)        (3in)        (3in)        (6in)        (6in)        (6in)        (6in)        (6in)        (6in)        (6in)        (6in)        (6in) 
~ASCII
# ...
       3237.43320      6.12500   7248.28545   1514.06980      3.70762      4.20458      5.38083      7.52997     12.46611      -999.25      -999.25      -999.25      -999.25      -999.25      -999.25      -999.25      -999.25      -999.25
       3237.28080      6.12500   7030.68388   1426.03574      3.74887      4.29662      5.58192      6.69124     11.61842      -999.25      -999.25      -999.25      -999.25      -999.25      -999.25      -999.25      -999.25      -999.25
       3237.12840      6.12500   6819.14316   1420.59626      3.68531      3.61262      4.87487      5.65155      8.14635      -999.25      -999.25      -999.25      -999.25      -999.25      -999.25      -999.25      -999.25      -999.25
       3236.97600      6.12500   6941.04806   1453.62002      3.58110      3.29682      4.22231      4.88990      5.91512      -999.25      -999.25      -999.25      -999.25      -999.25      -999.25      -999.25      -999.25      -999.25
       3236.82360      6.12500   7037.99916   1515.08369      3.72310      2.81653      3.82792      4.33809      4.02252      -999.25      -999.25      -999.25      -999.25      -999.25      -999.25      -999.25      -999.25      -999.25
       3236.67120      6.12500   7128.04863   1554.50506      4.10873      2.86761      3.72448      4.42196      2.97641      -999.25      -999.25      -999.25      -999.25      -999.25      -999.25      -999.25      -999.25      -999.25
       3236.51880      6.12500   7220.14162   1448.25720      3.95334      3.42955      4.84542      5.57525      4.28951      -999.25      -999.25      -999.25      -999.25      -999.25      -999.25      -999.25      -999.25      -999.25
       3236.36640      6.12500   6915.09611   1407.49170      4.70356      6.07458      6.33931      5.41186      4.11154      -999.25      -999.25      -999.25      -999.25      -999.25      -999.25      -999.25      -999.25      -999.25
       3236.21400      6.12500   6850.04764   1436.32187      4.36685      5.31909      5.52755      4.63425      2.95747      -999.25      -999.25      -999.25      -999.25      -999.25      -999.25      -999.25      -999.25      -999.25
       3236.06160      6.12500   7036.52442   1455.35375      3.49916      2.93842      3.43365      3.18485      2.38231      -999.25      -999.25      -999.25      -999.25      -999.25      -999.25      -999.25      -999.25      -999.25
       3235.90920      6.12500   7019.76266   1465.63583      4.54452      3.84739      3.26171      2.80717      2.20505      -999.25      -999.25      -999.25      -999.25      -999.25      -999.25      -999.25      -999.25      -999.25
       3235.75680      6.12500   7089.50064   1547.73089      4.71995      3.62324      3.13298      2.64960      2.18509      -999.25      -999.25      -999.25      -999.25      -999.25      -999.25      -999.25      -999.25      -999.25
       3235.60440      6.12500   7221.35334   1593.78750      4.70054      3.56814      3.23504      2.67305      2.28608      -999.25      -999.25      -999.25      -999.25      -999.25      -999.25      -999.25      -999.25      -999.25
       3235.45200      6.12500   7341.68682   1539.99162      5.26419      3.77842      3.27269      2.78135      2.45391      -999.25      -999.25      -999.25      -999.25      -999.25      -999.25      -999.25      -999.25      -999.25
       3235.29960      6.12500   7225.93719   1462.29382      5.44502      3.85665      3.42264      3.00917      2.65965      -999.25      -999.25      -999.25      -999.25      -999.25      -999.25      -999.25      -999.25      -999.25
       3235.14720      6.12500   7032.92298   1423.76022      5.47544      3.91886      3.59283      3.17396      2.92500      -999.25      -999.25      -999.25      6.22702      -999.25      -999.25      -999.25      -999.25      -999.25
       3234.99480      6.12500   7022.09168   1429.85030      5.51414      3.94015      3.71132      3.39275      3.14075      -999.25      -999.25      -999.25      6.23116      -999.25      -999.25      -999.25      -999.25      -999.25
       3234.84240      6.12500   7055.54550   1481.15979      5.46787      4.17057      3.85825      3.64924      3.47155      -999.25      -999.25      -999.25      6.23116      -999.25      -999.25      -999.25      -999.25      -999.25
       3234.69000      6.12500   7173.54547   1513.16179      5.61185      4.59680      4.09176      3.92205      3.87193      -999.25      -999.25      -999.25      6.23349      -999.25      -999.25      -999.25      -999.25      -999.25
       3234.53760      6.12500   7298.24923   1502.51687      6.17531      5.31615      4.48964      4.30407      4.40223      -999.25      -999.25      -999.25      6.23515      -999.25      -999.25      -999.25      -999.25      -999.25
       3234.38520      6.12500   7274.99949   1465.35370      6.04034      4.90014      4.20645      3.73214      4.34784      -999.25      -999.25      -999.25      6.23581      -999.25      -999.25      -999.25      -999.25      -999.25
       3234.23280      6.12500   7250.54478   1463.90188      5.19751      4.36742      3.75563      3.79746      4.16282      -999.25      -999.25      -999.25      6.21930      -999.25      -999.25      -999.25      -999.25      -999.25
       3234.08040      6.12500   7147.20011   1454.73283      4.92605      4.40153      3.63695      3.56737      4.12819      -999.25      -999.25      -999.25      6.24342      -999.25      -999.25      -999.25      -999.25      -999.25
       3233.92800      6.12500   7131.88837   1412.68524      4.20377      4.08934      3.46526      3.48711      4.02598      -999.25      -999.25      -999.25      6.24053      -999.25      -999.25      -999.25      -999.25      -999.25
       3233.77560      6.12500   7138.29992   1439.91859      4.17779      3.82458      3.52155      3.79648      4.49255      -999.25      -999.25      -999.25      6.23311      -999.25      -999.25      -999.25      -999.25      -999.25
       3233.62320      6.12500   7054.09998   1442.20894      4.08441      3.78326      3.62791      3.84348      4.32133      -999.25      -999.25      -999.25      6.22081      -999.25      -999.25      -999.25      -999.25      -999.25
       3233.47080      6.12500   7120.49955   1438.57985      4.32666      3.90123      3.93635      3.99596      4.67728      -999.25      -999.25      -999.25      6.24110      -999.25      -999.25      -999.25      -999.25      -999.25
       3233.31840      6.12500   7149.90905   1466.35365      4.45901      3.89208      3.96981      4.23145      4.43710      -999.25      -999.25      -999.25      6.23619      -999.25      -999.25      -999.25      -999.25      -999.25
       3233.16600      6.12500   7167.22159   1461.65200      4.52667      3.87259      3.94035      4.19571      3.99096      -999.25      -999.25      -999.25      6.24053      -999.25      -999.25      -999.25      -999.25      -999.25
       3233.01360      6.12500   7251.79921   1452.24891      5.03233      4.16873      4.35739      4.59814      4.35090      -999.25      -999.25      -999.25      6.24342      -999.25      -999.25      -999.25      -999.25      -999.25
       3232.86120      6.12500   7216.29963   1453.09577      5.45217      4.86055      5.18367      5.25156      4.72263     -0.05354      8.18807      2.68281      6.23763      -999.25      -999.25      -999.25      -999.25      -999.25
       3232.70880      6.12500   7149.40099   1418.27376      5.04651      4.69510      4.87053      5.04426      4.41288     -0.05568      7.82453      2.68195      6.24053      -999.25      -999.25      -999.25      -999.25      -999.25
       3232.55640      6.12500   7132.49985   1413.33853      5.03351      5.00954      4.86386      4.93635      4.17363     -0.04931      7.53484      2.69180      6.24101      -999.25      -999.25      -999.25      -999.25      -999.25
       3232.40400      6.12500   7032.79933   1407.18551      4.85243      4.84385      4.85185      4.86050      4.39760     -0.05947      7.88787      2.67065      6.24342      -999.25      -999.25      -999.25      -999.25      -999.25
