~VERSION INFORMATION 
VERS  .    2.0                                     :CWLS Log ASCII Standard - VERSION 2.0
WRAP  .    NO                                      :One Line per Depth step
PROD  .    Schlumberger Technology Corp.           :LAS Producer
PROG  .    Horizon LASWriter 6.2.68624.3100        :LAS Program name and version
SOURCE.    AT-33-F section 6.125" Run 1/1/1-Log[3]/Up:Run&Pass Information
CREA  .    07/28/2016                              :LAS Creation date {MM/DD/YYYY}
#--------------------------------------------------
~WELL INFORMATION 
#MNEM           .UNIT                      DATA            :DESCRIPTION
#----            ------          --------------            -----------------------------
STRT            .m                   3247.79640            :START DEPTH
STOP            .m                   1513.78920            :STOP DEPTH
STEP            .m                      -0.1524            :STEP
NULL            .                       -999.25            :NULL VALUE
COMP            .                         PTTEP            :COMPANY
WELL            .                       AT-33-F            :WELL NAME
FLD             .                ARTHIT / Block: 15A       :FIELD NAME
RIGN            .                          T-17            :Rig Name
RIGTYP          .                Tender Assisted           :Rig Type
SON             .                    DGEY-00011            :Service Order Number
SRVC            .                  Schlumberger            :SERVICE COMPANY
DATE            .                    07/28/2016            :LOG DATE(Composite Date for Composite LAP) (MM/DD/YYYY)
CLAB            .                     Rig Name:            :County Label
CNTY            .                          T-17            :COUNTY
SLAB            .                      Country:            :State/Province Label
STAT            .                      Thailand            :STATE or PROVINCE
PROV            .                      Thailand            :STATE or PROVINCE
CTRY            .                      Thailand            :COUNTRY
CONT_REGION     .                          Asia            :Continent Region
SECT            .                                          :Section
TOWN            .                                          :Township
RANG            .                                          :Range
API             .                                          :API NUMBER
UWI             .                                          :UNIQUE WELL ID
LUL             .                      Thailand            :Logging Unit Location
LUN             .                          7003            :Logging Unit Number
LOC             .                Gulf of Thailand          :FIELD LOCATION
FL1             .                X: 890 685.860 mE (DATUM: INDIAN 1975):Field Location Line 1
FL2             .                Y: 893 515.640 mN (UTM ZONE 47N):Field Location Line 2
LATI            .deg             8° 4' 7.168" N            :LATITUDE
LONG            .deg             102° 32' 38.971" E        :LONGITUDE
PDAT            .                           MSL            :Local Permanent Datum
LMF             .                            DF            :Logging Measured From
APD             .m                     29.00000            :Elevation of Depth Reference (LMF) Above Permanent Datum
EPD             .m                      0.00000            :Elevation of Permanent Datum (PDAT) above Mean Sea Level
EKB             .m                     29.00000            :Elevation of Kelly Bushing Above Permanent Datum
EDF             .m                     29.00000            :Elevation of Drill Floor Above Permanent Datum
EGL             .m                    -77.08000            :Elevation of Ground Level Above Permanent Datum
ECF             .m                      -999.25            :Elevation of Casing Flange above Permanent Datum
#--------------------------------------------------
~CURVE INFORMATION
#MNEM           .UNIT                  API CODE            :DESCRIPTION
#----            ------          --------------            -----------------------------
DEPT            .m                                         :                                                        Depth Index
BS              .in                                        :(RT)    (Borehole)              (6in)                   Bit Size
TENS            .lbf                                       :        (WLWorkflow)            (6in)                   Cable Tension
HTEN            .lbf                                       :        (LEH-QT)                (6in)                   Head Tension
AT10            .ohm.m                                     :        (QAIT-A)                (3in)                   Array Induction Two Foot Resistivity A10
AT20            .ohm.m                                     :        (QAIT-A)                (3in)                   Array Induction Two Foot Resistivity A20
AT30            .ohm.m                                     :        (QAIT-A)                (3in)                   Array Induction Two Foot Resistivity A30
AT60            .ohm.m                                     :        (QAIT-A)                (3in)                   Array Induction Two Foot Resistivity A60
AT90            .ohm.m                                     :        (QAIT-A)                (3in)                   Array Induction Two Foot Resistivity A90
DRHOLS          .g/cm3                                     :        (QLDT-B)                (6in)                   Density Correction Long Spacing
PEF             .                                          :        (QLDT-B)                (6in)                   Photoelectric Factor
RHOB            .g/cm3                                     :        (QLDT-B)                (6in)                   Bulk Density
CALI            .in                                        :        (QLDT-B)                (6in)                   Caliper
TNRA            .                                          :        (QCNT)                  (6in)                   Thermal Neutron Ratio
CFTC            .1/s                                       :        (QCNT)                  (6in)                   Corrected Far Thermal Count Rate
CNTC            .1/s                                       :        (QCNT)                  (6in)                   Corrected Near Thermal Count Rate
NPOR            .m3/m3                                     :        (QCNT)                  (6in)                   Enhanced Thermal Neutron Porosity in Selected Lithology
GR              .gAPI                                      :        (QTGC-B)                (6in)                   Gamma Ray
#-------------------------------------------------------------
#            DEPT           BS         TENS         HTEN         AT10         AT20         AT30         AT60         AT90       DRHOLS          PEF         RHOB         CALI         TNRA         CFTC         CNTC         NPOR           GR 
#                   (Borehole)  (WLWorkflo)     (LEH-QT)     (QAIT-A)     (QAIT-A)     (QAIT-A)     (QAIT-A)     (QAIT-A)     (QLDT-B)     (QLDT-B)     (QLDT-B)     (QLDT-B)       (QCNT)       (QCNT)       (QCNT)       (QCNT)     (QTGC-B) 
#                         (RT)                                                                                                                                                                                                                 
#                        (6in)        (6in)        (6in)        (3in)        (3in)        (3in)        (3in)        (3in)        (6in)        (6in)        (6in)        (6in)        (6in)        (6in)        (6in)        (6in)        (6in) 
~ASCII
# ...
       1765.85880      6.12500   4816.25059   1233.25128      4.25834      3.87411      3.73168      3.70464      3.86757      0.09663     10.64525      2.53747      6.16914      3.72788   1190.67300   5081.36600      0.22221    101.77630
       1765.70640      6.12500   4774.71489   1216.06419      4.16909      3.75850      3.66446      3.60745      3.71287      0.10719     11.24667      2.53891      6.15463      3.81959   1268.53600   5254.06700      0.21037     99.01762
       1765.55400      6.12500   4774.00000   1212.73769      4.13677      3.66059      3.58161      3.51529      3.58629      0.10846      8.42819      2.53657      6.15463      3.76304   1294.25800   5135.82600      0.21337     96.20673
       1765.40160      6.12500   4757.14383   1208.11202      4.21659      3.69205      3.62209      3.52409      3.58968      0.08998     10.94624      2.50878      6.15463      3.73944   1252.18200   5114.38000      0.22101     92.89284
       1765.24920      6.12500   4755.25094   1212.95935      4.36585      3.87574      3.76166      3.65175      3.73437      0.05363      9.50348      2.45846      6.15463      3.77625   1308.89400   5321.13100      0.20249     90.49393
       1765.09680      6.12500   4772.99960   1211.96142      4.67560      4.10875      3.96134      3.76956      3.82903      0.03134      7.25883      2.42740      6.15463      3.68525   1339.96800   5477.03800      0.19134     86.68096
       1764.94440      6.12500   4772.25099   1217.50566      4.84125      4.31604      4.16278      3.86583      3.93982      0.01149      5.90284      2.40267      6.16189      3.75663   1357.43800   5143.99500      0.21191     82.73064
       1764.79200      6.12500   4798.28611   1215.39898      4.82492      4.34667      4.16678      3.88211      3.90305     -0.01278      5.80639      2.38324      6.15874      3.70120   1251.88600   5378.94900      0.19971     80.58620
       1764.63960      6.12500   4778.37478   1215.39875      4.68521      4.21094      4.03366      3.74931      3.77487     -0.01949      5.74467      2.39696      6.15561      3.82324   1281.44100   5007.65600      0.21734     82.81592
       1764.48720      6.12500   4758.62532   1206.30635      4.36363      3.92656      3.78474      3.52601      3.53981     -0.00586      5.86762      2.43781      6.15561      3.72110   1235.16300   5169.08700      0.20642     88.89984
       1764.33480      6.12500   4760.28666   1214.51188      4.07955      3.70601      3.58252      3.39041      3.37055     -0.00592      5.19924      2.45147      6.14837      3.74538   1234.99800   4897.62500      0.21563     95.34380
       1764.18240      6.12500   4754.50007   1227.59621      3.85588      3.48769      3.39020      3.22515      3.19794     -0.00252      5.11678      2.46173      6.15561      3.81348   1262.44000   5032.74800      0.21547    101.81620
       1764.03000      6.12500   4787.00070   1220.27778      3.70152      3.34072      3.25577      3.13819      3.07405      0.01378      6.14189      2.48569      6.19183      3.88396   1142.22500   5032.21600      0.21924    106.81040
       1763.87760      6.12500   4801.28506   1214.57505      3.70141      3.31764      3.22168      3.12270      3.05108      0.03182      7.43031      2.50993      6.17010      3.89814   1192.77500   5002.60400      0.22595    109.90880
       1763.72520      6.12500   4752.57121   1223.82616      3.81617      3.42065      3.30304      3.17175      3.12461      0.02672      7.71714      2.49444      6.15561      3.77155   1283.56100   5175.93100      0.21063    108.28030
       1763.57280      6.12500   4765.99905   1218.39276      4.25755      3.73001      3.58443      3.39560      3.37390      0.02155      7.10365      2.46691      6.15561      3.69155   1289.88700   5153.61000      0.20569    101.76470
       1763.42040      6.12500   4792.24999   1213.51395      4.77632      4.18957      4.01441      3.75713      3.72318      0.00602      5.46427      2.41535      6.15561      3.70589   1361.79700   5358.46400      0.19592     90.30351
       1763.26800      6.12500   4771.99920   1198.65521      5.22141      4.48990      4.26966      3.92559      3.84217     -0.00583      4.94135      2.38353      6.16285      3.66268   1313.11900   5356.14100      0.19501     80.18150
       1763.11560      6.12500   4751.49887   1194.77433      5.13409      4.58860      4.26172      3.90989      3.81916     -0.01934      4.31695      2.35697      6.16285      3.66122   1342.66300   5176.45100      0.20001     81.28265
       1762.96320      6.12500   4746.57106   1185.90337      4.89610      4.31538      3.97172      3.69538      3.66412     -0.00605      4.54429      2.38878      6.17010      3.72017   1351.24000   5310.52000      0.19009     91.18713
       1762.81080      6.12500   4713.37577   1190.56074      4.03557      3.74849      3.53633      3.33500      3.33812      0.00299      5.61003      2.42667      6.17734      3.83750   1148.44200   4903.84700      0.20922    104.32540
       1762.65840      6.12500   4742.85722   1190.11719      3.38831      3.14728      3.03138      2.90713      2.92168      0.02839      7.41682      2.48275      6.16285      3.92529   1112.25500   4711.03700      0.22935    112.40720
       1762.50600      6.12500   4743.12474   1202.86880      2.83105      2.73672      2.66742      2.58804      2.61697      0.04960     10.35762      2.51399      6.15561      3.98245   1042.99200   4395.78100      0.25540    115.07310
       1762.35360      6.12500   4761.71419   1203.75590      3.03740      2.83626      2.75332      2.68089      2.72651      0.05148     10.14989      2.49809      6.16285      4.07294    977.44200   4354.72100      0.25680    112.75190
       1762.20120      6.12500   4760.74976   1203.75590      3.39801      3.22219      3.13948      3.03477      3.09881      0.04384      9.76707      2.44037      6.16285      4.16793   1059.77800   4799.54300      0.21887    113.89050
       1762.04880      6.12500   4767.28496   1202.15616      3.87496      3.53333      3.43313      3.32828      3.42431      0.04620      8.92334      2.42151      6.16285      4.13717   1028.11000   4649.52300      0.24089    120.68140
       1761.89640      6.12500   4766.57231   1200.54023      3.83523      3.60345      3.54362      3.44282      3.54183      0.03074      7.85988      2.40358      6.15561      4.01184   1013.42300   4414.02700      0.25787    129.71350
       1761.74400      6.12500   4767.37488   1200.09668      3.57637      3.35254      3.27049      3.18240      3.28785      0.02269      7.30254      2.42904      6.14837      3.91602   1199.10900   4943.53000      0.20903    136.51500
       1761.59160      6.12500   4752.37563   1200.98378      3.31050      3.15887      3.11932      3.04815      3.11415      0.02166      7.23340      2.46653      6.16285      3.90688   1163.45900   4900.37200      0.21069    137.68950
       1761.43920      6.12500   4781.42769   1205.45073      3.29171      3.13959      3.06105      3.00630      3.04476      0.01497      7.12359      2.49339      6.15320      4.02635   1116.87300   4831.51400      0.23013    132.18750
       1761.28680      6.12500   4785.62487   1212.62686      3.35736      3.21987      3.13337      3.06772      3.06623      0.00717      6.71754      2.49989      6.16285      4.03587   1106.22700   4988.87800      0.22281    117.19340
       1761.13440      6.12500   4784.57052   1201.42733      3.36982      3.25266      3.18092      3.10028      3.08136      0.01376      6.12090      2.51745      6.15802      4.15403   1091.44400   4630.73400      0.24767    102.59880
       1760.98200      6.12500   4758.74896   1190.89323      3.18967      3.10199      3.05152      2.97239      2.94027      0.00132      5.69468      2.50111      6.16285      4.06603   1013.32900   4771.60500      0.24290     97.37385
       1760.82960      6.12500   4715.85767   1190.89323      3.22355      3.09326      3.03739      2.95698      2.91838      0.00019      5.68911      2.49548      6.15561      4.07637   1077.22400   4550.89100      0.24948    101.68450
