~VERSION INFORMATION 
VERS  .    2.0                                     :CWLS Log ASCII Standard - VERSION 2.0
WRAP  .    NO                                      :One Line per Depth step
PROD  .    Schlumberger Technology Corp.           :LAS Producer
PROG  .    Horizon LASWriter 6.2.68624.3100        :LAS Program name and version
SOURCE.    AT-33-F section 6.125" Run 1/1/1-Log[2]/Down:Run&Pass Information
CREA  .    07/28/2016                              :LAS Creation date {MM/DD/YYYY}
#--------------------------------------------------
~WELL INFORMATION 
#MNEM           .UNIT                      DATA            :DESCRIPTION
#----            ------          --------------            -----------------------------
STRT            .m                   1518.36120            :START DEPTH
STOP            .m                   3242.61480            :STOP DEPTH
STEP            .m                       0.1524            :STEP
NULL            .                       -999.25            :NULL VALUE
COMP            .                         PTTEP            :COMPANY
WELL            .                       AT-33-F            :WELL NAME
FLD             .                ARTHIT / Block: 15A       :FIELD NAME
RIGN            .                          T-17            :Rig Name
RIGTYP          .                Tender Assisted           :Rig Type
SON             .                    DGEY-00011            :Service Order Number
SRVC            .                  Schlumberger            :SERVICE COMPANY
DATE            .                    07/28/2016            :LOG DATE(Composite Date for Composite LAP) (MM/DD/YYYY)
CLAB            .                     Rig Name:            :County Label
CNTY            .                          T-17            :COUNTY
SLAB            .                      Country:            :State/Province Label
STAT            .                      Thailand            :STATE or PROVINCE
PROV            .                      Thailand            :STATE or PROVINCE
CTRY            .                      Thailand            :COUNTRY
CONT_REGION     .                          Asia            :Continent Region
SECT            .                                          :Section
TOWN            .                                          :Township
RANG            .                                          :Range
API             .                                          :API NUMBER
UWI             .                                          :UNIQUE WELL ID
LUL             .                      Thailand            :Logging Unit Location
LUN             .                          7003            :Logging Unit Number
LOC             .                Gulf of Thailand          :FIELD LOCATION
FL1             .                X: 890 685.860 mE (DATUM: INDIAN 1975):Field Location Line 1
FL2             .                Y: 893 515.640 mN (UTM ZONE 47N):Field Location Line 2
LATI            .deg             8° 4' 7.168" N            :LATITUDE
LONG            .deg             102° 32' 38.971" E        :LONGITUDE
PDAT            .                           MSL            :Local Permanent Datum
LMF             .                            DF            :Logging Measured From
APD             .m                     29.00000            :Elevation of Depth Reference (LMF) Above Permanent Datum
EPD             .m                      0.00000            :Elevation of Permanent Datum (PDAT) above Mean Sea Level
EKB             .m                     29.00000            :Elevation of Kelly Bushing Above Permanent Datum
EDF             .m                     29.00000            :Elevation of Drill Floor Above Permanent Datum
EGL             .m                    -77.08000            :Elevation of Ground Level Above Permanent Datum
ECF             .m                      -999.25            :Elevation of Casing Flange above Permanent Datum
#--------------------------------------------------
~CURVE INFORMATION
#MNEM           .UNIT                  API CODE            :DESCRIPTION
#----            ------          --------------            -----------------------------
DEPT            .m                                         :                                                        Depth Index
BS              .in                                        :(RT)    (Borehole)              (6in)                   Bit Size
TENS            .lbf                                       :        (WLWorkflow)            (6in)                   Cable Tension
HTEN            .lbf                                       :        (LEH-QT)                (6in)                   Head Tension
AT10            .ohm.m                                     :        (QAIT-A)                (3in)                   Array Induction Two Foot Resistivity A10
AT20            .ohm.m                                     :        (QAIT-A)                (3in)                   Array Induction Two Foot Resistivity A20
AT30            .ohm.m                                     :        (QAIT-A)                (3in)                   Array Induction Two Foot Resistivity A30
AT60            .ohm.m                                     :        (QAIT-A)                (3in)                   Array Induction Two Foot Resistivity A60
AT90            .ohm.m                                     :        (QAIT-A)                (3in)                   Array Induction Two Foot Resistivity A90
DRHOLS          .g/cm3                                     :        (QLDT-B)                (6in)                   Density Correction Long Spacing
PEF             .                                          :        (QLDT-B)                (6in)                   Photoelectric Factor
RHOB            .g/cm3                                     :        (QLDT-B)                (6in)                   Bulk Density
CALI            .in                                        :        (QLDT-B)                (6in)                   Caliper
TNRA            .                                          :        (QCNT)                  (6in)                   Thermal Neutron Ratio
CFTC            .1/s                                       :        (QCNT)                  (6in)                   Corrected Far Thermal Count Rate
CNTC            .1/s                                       :        (QCNT)                  (6in)                   Corrected Near Thermal Count Rate
NPOR            .m3/m3                                     :        (QCNT)                  (6in)                   Enhanced Thermal Neutron Porosity in Selected Lithology
GR              .gAPI                                      :        (QTGC-B)                (6in)                   Gamma Ray
#-------------------------------------------------------------
#            DEPT           BS         TENS         HTEN         AT10         AT20         AT30         AT60         AT90       DRHOLS          PEF         RHOB         CALI         TNRA         CFTC         CNTC         NPOR           GR 
#                   (Borehole)  (WLWorkflo)     (LEH-QT)     (QAIT-A)     (QAIT-A)     (QAIT-A)     (QAIT-A)     (QAIT-A)     (QLDT-B)     (QLDT-B)     (QLDT-B)     (QLDT-B)       (QCNT)       (QCNT)       (QCNT)       (QCNT)     (QTGC-B) 
#                         (RT)                                                                                                                                                                                                                 
#                        (6in)        (6in)        (6in)        (3in)        (3in)        (3in)        (3in)        (3in)        (6in)        (6in)        (6in)        (6in)        (6in)        (6in)        (6in)        (6in)        (6in) 
~ASCII
# ...
       1539.08760      8.50000      -999.25      -999.25      -999.25      -999.25      -999.25      -999.25      -999.25     -1.07672     25.00000      1.79079      6.34473      4.96595    428.99480   2568.65100      0.30304     61.18189
       1539.24000      8.50000      -999.25      -999.25      -999.25      -999.25      -999.25      -999.25      -999.25     -1.06177     25.00000      1.82802      6.33026      4.87043    516.82150   2741.14700      0.26138     67.58295
       1539.39240      8.50000      -999.25      -999.25      -999.25      -999.25      -999.25      -999.25      -999.25     -1.08473     25.00000      1.81109      6.33026      5.04537    560.72690   2518.49700      0.30276     72.24294
       1539.54480      8.50000      -999.25      -999.25      -999.25      -999.25      -999.25      -999.25      -999.25     -1.08706     25.00000      1.78915      6.33749      5.04712    384.23360   2518.46700      0.32192     73.36428
       1539.69720      8.50000      -999.25      -999.25      -999.25      -999.25      -999.25      -999.25      -999.25     -1.06724     25.00000      1.81723      6.34473      5.51136    489.79920   2600.59500      0.33484     70.53003
       1539.84960      8.50000      -999.25      -999.25      -999.25      -999.25      -999.25      -999.25      -999.25     -1.07051     25.00000      1.78177      6.34473      4.93873    449.25670   2693.69600      0.27512     64.70396
       1540.00200      8.50000      -999.25      -999.25      -999.25      -999.25      -999.25      -999.25      -999.25     -1.04894     25.00000      1.81465      6.34473      4.76787    513.44500   2412.61500      0.29769     59.91665
       1540.15440      8.50000      -999.25      -999.25      -999.25      -999.25      -999.25      -999.25      -999.25     -1.05527     25.00000      1.76939      6.34473      4.51138    547.21440   2602.45000      0.25606     55.86939
       1540.30680      8.50000      -999.25      -999.25      -999.25      -999.25      -999.25      -999.25      -999.25     -1.06433     25.00000      1.74782      6.35920      4.78296    502.46640   2595.11300      0.24903     56.66629
       1540.45920      8.50000      -999.25      -999.25      -999.25      -999.25      -999.25      -999.25      -999.25     -1.10057     25.00000      1.66185      6.34473      4.86422    466.15170   2600.63100      0.29113     56.86277
       1540.61160      8.50000      -999.25      -999.25      -999.25      -999.25      -999.25      -999.25      -999.25     -1.09540     25.00000      1.66543      6.34473      4.87801    466.14630   2339.64600      0.32599     57.33465
       1540.76400      8.50000      -999.25      -999.25      -999.25      -999.25      -999.25      -999.25      -999.25     -1.09754     25.00000      1.65129      6.34473      4.70926    510.06530   2657.16700      0.26356     56.28582
       1540.91640      8.50000      -999.25      -999.25      -999.25      -999.25      -999.25      -999.25      -999.25     -1.09456     25.00000      1.64702      6.34473      5.00996    519.34740   2613.39500      0.27676     54.91594
       1541.06880      8.50000      -999.25      -999.25      -999.25      -999.25      -999.25      -999.25      -999.25     -1.08077     25.00000      1.67665      6.34473      5.02996    432.37450   2591.46400      0.30310     55.55509
       1541.22120      8.50000      -999.25      -999.25      -999.25      -999.25      -999.25      -999.25      -999.25     -1.07641     25.00000      1.67697      6.34473      5.19623    483.04400   2547.70100      0.32400     55.37091
       1541.37360      8.50000      -999.25      -999.25      -999.25      -999.25      -999.25      -999.25      -999.25     -1.04092     25.00000      1.75850      6.34473      4.72258    456.01360   2540.40400      0.26436     56.15057
       1541.52600      8.50000      -999.25      -999.25      -999.25      -999.25      -999.25      -999.25      -999.25     -1.04505     25.00000      1.74541      6.35196      4.70179    561.57220   2503.86100      0.27703     53.34683
       1541.67840      8.50000      -999.25      -999.25      -999.25      -999.25      -999.25      -999.25      -999.25     -1.03716     25.00000      1.74933      6.34473      4.75068    466.15360   2427.22100      0.28156     50.47462
       1541.83080      8.50000      -999.25      -999.25      -999.25      -999.25      -999.25      -999.25      -999.25     -1.03240     25.00000      1.73772      6.33026      4.88169    459.32910   2631.64800      0.27370     46.31631
       1541.98320      8.50000      -999.25      -999.25      -999.25      -999.25      -999.25      -999.25      -999.25     -1.04251     25.00000      1.73278      6.34149      5.04567    506.68650   2474.24800      0.30814     45.17985
       1542.13560      8.50000      -999.25      -999.25      -999.25      -999.25      -999.25      -999.25      -999.25     -1.05713     25.00000      1.73881      6.34473      4.98413    443.34490   2544.04200      0.31040     48.20283
       1542.28800      8.50000      -999.25      -999.25      -999.25      -999.25      -999.25      -999.25      -999.25     -1.03559     25.00000      1.80508      6.34473      4.99886    466.15120   2577.77600      0.30614     53.16853
       1542.44040      8.50000      -999.25      -999.25      -999.25      -999.25      -999.25      -999.25      -999.25     -1.02751     25.00000      1.83889      6.34473      4.77000    533.70290   2631.65300      0.27181     58.81591
       1542.59280      8.50000      -999.25      -999.25      -999.25      -999.25      -999.25      -999.25      -999.25     -1.05119     25.00000      1.84084      6.34473      4.63767    557.35610   2784.90900      0.25997     62.15524
       1542.74520      8.50000      -999.25      -999.25      -999.25      -999.25      -999.25      -999.25      -999.25     -1.06481     25.00000      1.82057      6.35920      4.68517    520.19240   2653.55400      0.27682     64.73363
       1542.89760      8.50000      -999.25      -999.25      -999.25      -999.25      -999.25      -999.25      -999.25     -1.03652     25.00000      1.90149      6.35920      4.73965    574.24550   2919.96300      0.25868     69.00557
       1543.05000      8.50000      -999.25      -999.25      -999.25      -999.25      -999.25      -999.25      -999.25     -1.07890     25.00000      1.82760      6.34473      4.76940    540.46000   2795.89700      0.26207     72.05993
       1543.20240      8.50000      -999.25      -999.25      -999.25      -999.25      -999.25      -999.25      -999.25     -1.08110     25.00000      1.83945      6.34473      4.82303    533.71060   2773.96900      0.28530     72.99953
       1543.35480      8.50000      -999.25      -999.25      -999.25      -999.25      -999.25      -999.25      -999.25     -1.06978     25.00000      1.84243      6.34473      4.72510    506.68910   2664.49700      0.27770     68.01501
       1543.50720      8.50000      -999.25      -999.25      -999.25      -999.25      -999.25      -999.25      -999.25     -1.03975     25.00000      1.87751      6.34473      5.01600    547.21610   2657.19700      0.31461     59.08163
       1543.65960      8.50000      -999.25      -999.25      -999.25      -999.25      -999.25      -999.25      -999.25     -1.04720     25.00000      1.83219      6.34473      4.91958    425.61760   2613.36700      0.31836     49.93561
       1543.81200      8.50000      -999.25      -999.25      -999.25      -999.25      -999.25      -999.25      -999.25     -1.05856     25.00000      1.79287      6.34473      4.66222    561.57060   2777.65000      0.28306     43.87142
       1543.96440      8.50000      -999.25      -999.25      -999.25      -999.25      -999.25      -999.25      -999.25     -1.05899     25.00000      1.80228      6.34473      4.15464    756.65360   3043.14500      0.23703     42.28593
       1544.11680      8.50000      -999.25      -999.25      -999.25      -999.25      -999.25      -999.25      -999.25     -1.03570     25.00000      1.88642      6.34473      3.94735    780.28880   3507.64900      0.16954     43.36300
