~VERSION INFORMATION 
VERS  .    2.0                                     :CWLS Log ASCII Standard - VERSION 2.0
WRAP  .    NO                                      :One Line per Depth step
PROD  .    Schlumberger Technology Corp.           :LAS Producer
PROG  .    Horizon LASWriter 6.2.68624.3100        :LAS Program name and version
SOURCE.    AT-33-F section 6.125" Run 1/1/1-Log[2]/Down:Run&Pass Information
CREA  .    07/28/2016                              :LAS Creation date {MM/DD/YYYY}
#--------------------------------------------------
~WELL INFORMATION 
#MNEM           .UNIT                      DATA            :DESCRIPTION
#----            ------          --------------            -----------------------------
STRT            .m                   1518.36120            :START DEPTH
STOP            .m                   3242.61480            :STOP DEPTH
STEP            .m                       0.1524            :STEP
NULL            .                       -999.25            :NULL VALUE
COMP            .                         PTTEP            :COMPANY
WELL            .                       AT-33-F            :WELL NAME
FLD             .                ARTHIT / Block: 15A       :FIELD NAME
RIGN            .                          T-17            :Rig Name
RIGTYP          .                Tender Assisted           :Rig Type
SON             .                    DGEY-00011            :Service Order Number
SRVC            .                  Schlumberger            :SERVICE COMPANY
DATE            .                    07/28/2016            :LOG DATE(Composite Date for Composite LAP) (MM/DD/YYYY)
CLAB            .                     Rig Name:            :County Label
CNTY            .                          T-17            :COUNTY
SLAB            .                      Country:            :State/Province Label
STAT            .                      Thailand            :STATE or PROVINCE
PROV            .                      Thailand            :STATE or PROVINCE
CTRY            .                      Thailand            :COUNTRY
CONT_REGION     .                          Asia            :Continent Region
SECT            .                                          :Section
TOWN            .                                          :Township
RANG            .                                          :Range
API             .                                          :API NUMBER
UWI             .                                          :UNIQUE WELL ID
LUL             .                      Thailand            :Logging Unit Location
LUN             .                          7003            :Logging Unit Number
LOC             .                Gulf of Thailand          :FIELD LOCATION
FL1             .                X: 890 685.860 mE (DATUM: INDIAN 1975):Field Location Line 1
FL2             .                Y: 893 515.640 mN (UTM ZONE 47N):Field Location Line 2
LATI            .deg             8° 4' 7.168" N            :LATITUDE
LONG            .deg             102° 32' 38.971" E        :LONGITUDE
PDAT            .                           MSL            :Local Permanent Datum
LMF             .                            DF            :Logging Measured From
APD             .m                     29.00000            :Elevation of Depth Reference (LMF) Above Permanent Datum
EPD             .m                      0.00000            :Elevation of Permanent Datum (PDAT) above Mean Sea Level
EKB             .m                     29.00000            :Elevation of Kelly Bushing Above Permanent Datum
EDF             .m                     29.00000            :Elevation of Drill Floor Above Permanent Datum
EGL             .m                    -77.08000            :Elevation of Ground Level Above Permanent Datum
ECF             .m                      -999.25            :Elevation of Casing Flange above Permanent Datum
#--------------------------------------------------
~CURVE INFORMATION
#MNEM           .UNIT                  API CODE            :DESCRIPTION
#----            ------          --------------            -----------------------------
DEPT            .m                                         :                                                        Depth Index
BS              .in                                        :(RT)    (Borehole)              (6in)                   Bit Size
TENS            .lbf                                       :        (WLWorkflow)            (6in)                   Cable Tension
HTEN            .lbf                                       :        (LEH-QT)                (6in)                   Head Tension
AT10            .ohm.m                                     :        (QAIT-A)                (3in)                   Array Induction Two Foot Resistivity A10
AT20            .ohm.m                                     :        (QAIT-A)                (3in)                   Array Induction Two Foot Resistivity A20
AT30            .ohm.m                                     :        (QAIT-A)                (3in)                   Array Induction Two Foot Resistivity A30
AT60            .ohm.m                                     :        (QAIT-A)                (3in)                   Array Induction Two Foot Resistivity A60
AT90            .ohm.m                                     :        (QAIT-A)                (3in)                   Array Induction Two Foot Resistivity A90
DRHOLS          .g/cm3                                     :        (QLDT-B)                (6in)                   Density Correction Long Spacing
PEF             .                                          :        (QLDT-B)                (6in)                   Photoelectric Factor
RHOB            .g/cm3                                     :        (QLDT-B)                (6in)                   Bulk Density
CALI            .in                                        :        (QLDT-B)                (6in)                   Caliper
TNRA            .                                          :        (QCNT)                  (6in)                   Thermal Neutron Ratio
CFTC            .1/s                                       :        (QCNT)                  (6in)                   Corrected Far Thermal Count Rate
CNTC            .1/s                                       :        (QCNT)                  (6in)                   Corrected Near Thermal Count Rate
NPOR            .m3/m3                                     :        (QCNT)                  (6in)                   Enhanced Thermal Neutron Porosity in Selected Lithology
GR              .gAPI                                      :        (QTGC-B)                (6in)                   Gamma Ray
#-------------------------------------------------------------
#            DEPT           BS         TENS         HTEN         AT10         AT20         AT30         AT60         AT90       DRHOLS          PEF         RHOB         CALI         TNRA         CFTC         CNTC         NPOR           GR 
#                   (Borehole)  (WLWorkflo)     (LEH-QT)     (QAIT-A)     (QAIT-A)     (QAIT-A)     (QAIT-A)     (QAIT-A)     (QLDT-B)     (QLDT-B)     (QLDT-B)     (QLDT-B)       (QCNT)       (QCNT)       (QCNT)       (QCNT)     (QTGC-B) 
#                         (RT)                                                                                                                                                                                                                 
#                        (6in)        (6in)        (6in)        (3in)        (3in)        (3in)        (3in)        (3in)        (6in)        (6in)        (6in)        (6in)        (6in)        (6in)        (6in)        (6in)        (6in) 
~ASCII
# ...
       1653.08280      6.12500   1757.50011   1070.36146      3.17825      3.05665      3.07338      3.08480      3.12934     -0.00978      7.73701      2.45141      6.23530      3.82665   1203.38700   5064.30200      0.20101    116.89940
       1653.23520      6.12500   1769.24998   1080.11930      3.11764      3.02491      3.03896      3.03934      3.10595     -0.02492      7.12791      2.41777      6.21448      3.81550   1144.25600   5005.08000      0.20751    117.81350
       1653.38760      6.12500   1779.99989   1086.32874      3.06303      2.98825      2.99434      2.99108      3.05631     -0.01334      7.42030      2.44050      6.22895      3.88292   1249.81200   4726.69400      0.23090    122.50800
       1653.54000      6.12500   1784.50012   1085.21999      3.00238      2.91968      2.93698      2.92989      2.99818      0.00148      6.92093      2.46253      6.22895      3.87944   1089.38000   4822.49400      0.21543    126.93630
       1653.69240      6.12500   1794.00009   1073.24441      2.91682      2.83490      2.83473      2.81225      2.86451      0.00247      7.59117      2.47891      6.22895      3.88290   1123.15700   4900.14300      0.21131    130.47960
       1653.84480      6.12500   1793.66670   1064.37368      2.81214      2.72429      2.71516      2.69189      2.73945     -0.00012      7.96760      2.48907      6.24342      3.73137   1224.48000   4644.63100      0.21902    128.82480
       1653.99720      6.12500   1783.99992   1065.33451      2.82657      2.79286      2.77650      2.73173      2.75688     -0.00302      8.02202      2.49502      6.22895      3.76767   1255.44300   4941.13000      0.20075    124.29520
       1654.14960      6.12500   1768.99999   1065.48244      2.85452      2.83144      2.78504      2.74236      2.73617     -0.04334      7.38387      2.45691      6.24342      4.00589   1114.69700   4994.35100      0.20994    116.81070
       1654.30200      6.12500   1762.00012   1052.39811      2.75491      2.76577      2.71594      2.66269      2.64180     -0.04655      6.26673      2.47402      6.22895      4.20784   1051.38000   4799.68200      0.24347    113.87700
       1654.45440      6.12500   1757.33331   1058.16401      2.62172      2.57399      2.57814      2.54908      2.49155     -0.05638      6.05223      2.47580      6.22895      4.23777   1038.69600   4767.82600      0.25738    113.63020
       1654.60680      6.12500   1744.00011   1068.14372      2.36708      2.30278      2.28665      2.24977      2.21769     -0.05685      6.00221      2.47398      6.22895      4.07538   1000.70700   4580.69700      0.25372    115.81670
       1654.75920      6.12500   1748.33353   1069.03082      2.05178      2.03086      2.03129      2.01150      1.98780     -0.06337      6.44481      2.46222      6.22895      4.08666   1207.59100   4877.31600      0.22737    113.29950
       1654.91160      6.12500   1758.50007   1062.08198      2.03883      2.00208      2.00472      1.99243      1.94300     -0.05165      6.62974      2.47719      6.22895      4.09021   1093.58500   5059.75400      0.20871    111.97520
       1655.06400      6.12500   1772.75003   1069.69603      2.13942      2.09826      2.09040      2.05549      2.04006     -0.05932      6.43457      2.46687      6.22895      4.33561   1042.93600   4785.99400      0.24077    107.82720
       1655.21640      6.12500   1772.25005   1083.22413      2.20887      2.17377      2.16342      2.14172      2.12057     -0.05184      6.46414      2.46962      6.22895      4.33556    962.69350   4653.77100      0.25513    107.74910
       1655.36880      6.12500   1777.33343   1082.55870      2.05777      2.03461      2.04110      1.97936      2.00657     -0.02568      7.60676      2.48084      6.21448      4.44284    899.35720   4160.94400      0.29172    111.13840
       1655.52120      6.12500   1802.49990   1084.77644      1.92820      1.87082      1.87753      1.85573      1.85320      0.01130      8.51007      2.50468      6.23530      4.31816    861.35710   4252.18900      0.28712    119.79300
       1655.67360      6.12500   1783.49994   1088.10316      1.81454      1.77380      1.78754      1.77545      1.77531      0.02714     10.63355      2.49334      6.22895      4.43300    958.47310   4246.11000      0.31500    128.06360
       1655.82600      6.12500   1781.33346   1081.44994      1.72435      1.68520      1.68327      1.68739      1.67869      0.03678      8.96849      2.50251      6.21448      4.30098    971.13680   4854.44400      0.24655    132.62690
       1655.97840      6.12500   1783.99992   1061.78635      1.82326      1.83440      1.80476      1.81086      1.80906      0.04224      8.99312      2.52599      6.25789      4.15907   1270.94100   5730.42000      0.16978    132.53620
       1656.13080      6.12500   1771.25010   1052.61977      2.01394      2.13504      2.11208      2.09926      2.08516      0.02517      7.63522      2.54716      6.21448      3.96240   1308.92400   5196.70800      0.20029    126.05040
       1656.28320      6.12500   1755.00001   1055.05939      2.47590      2.52288      2.57123      2.58114      2.58666      0.01541      7.26712      2.55357      6.22081      4.12708   1047.14100   4566.99900      0.26517    119.37220
       1656.43560      6.12500   1755.74998   1050.84580      2.28637      2.32566      2.30713      2.24561      2.22061      0.01153      7.41465      2.54820      6.22895      4.56573    912.04060   4598.93800      0.28787    113.64650
       1656.58800      6.12500   1756.74993   1054.39396      1.92668      1.90619      1.87153      1.83980      1.82774      0.00885      7.54761      2.52209      6.21448      4.63334    819.13530   4416.50300      0.28887    116.73810
       1656.74040      6.12500   1760.74995   1057.72046      1.73149      1.70178      1.69751      1.68619      1.68389     -0.00338      7.53113      2.49295      6.21448      4.44027    971.15210   4448.38600      0.28628    122.27690
       1656.89280      6.12500   1771.00012   1066.81285      1.66308      1.68151      1.67886      1.67527      1.66383      0.01138      7.00825      2.49722      6.20000      4.19264   1013.36400   4475.82000      0.25805    128.23230
       1657.04520      6.12500   1762.00012   1072.13566      1.78506      1.79483      1.76789      1.77554      1.79731     -0.00002      6.91723      2.48939      6.22081      4.22360   1093.58500   5018.69000      0.21659    128.92910
       1657.19760      6.12500   1781.00007   1072.13566      1.92933      2.02732      2.00865      2.00806      1.98554     -0.01101      7.40819      2.49868      6.20000      4.11325   1055.60100   4941.11700      0.20377    122.11130
       1657.35000      6.12500   1786.33344   1072.80109      2.26154      2.26488      2.27179      2.30210      2.28057     -0.01952      7.06045      2.49837      6.22895      4.13117   1127.36400   4576.20100      0.24370    116.00960
       1657.50240      6.12500   1781.75003   1079.01054      2.09865      2.12309      2.12997      2.12912      2.06166     -0.00579      7.26041      2.50778      6.22895      3.99455    912.03950   4238.50200      0.26853    112.29290
       1657.65480      6.12500   1790.75003   1081.89349      1.91257      1.86513      1.85627      1.86339      1.86740     -0.01465      7.52443      2.47217      6.21448      4.16181   1030.25100   4366.33500      0.26867    114.20020
       1657.80720      6.12500   1783.66675   1078.78865      1.80743      1.81390      1.80319      1.81531      1.80691      0.00023      7.78161      2.48250      6.22081      4.05543   1068.25400   4915.26700      0.20974    118.09330
       1657.95960      6.12500   1776.25008   1073.90985      1.97135      1.97613      1.98840      2.01953      2.04194     -0.00396      6.89913      2.48574      6.22081      4.20249   1165.38500   5014.12800      0.22047    118.76920
       1658.11200      6.12500   1776.50007   1063.93013      2.15686      2.21785      2.22488      2.24206      2.26530      0.00593      6.27578      2.51658      6.22081      4.19481   1025.78500   4836.25300      0.24304    118.06870
