~VERSION INFORMATION 
VERS  .    2.0                                     :CWLS Log ASCII Standard - VERSION 2.0
WRAP  .    NO                                      :One Line per Depth step
PROD  .    Schlumberger Technology Corp.           :LAS Producer
PROG  .    Horizon LASWriter 6.2.68624.3100        :LAS Program name and version
SOURCE.    AT-33-F section 6.125" Run 1/1/1-Log[3]/Up:Run&Pass Information
CREA  .    07/28/2016                              :LAS Creation date {MM/DD/YYYY}
#--------------------------------------------------
~WELL INFORMATION 
#MNEM           .UNIT                      DATA            :DESCRIPTION
#----            ------          --------------            -----------------------------
STRT            .m                   3247.79640            :START DEPTH
STOP            .m                   1513.78920            :STOP DEPTH
STEP            .m                      -0.1524            :STEP
NULL            .                       -999.25            :NULL VALUE
COMP            .                         PTTEP            :COMPANY
WELL            .                       AT-33-F            :WELL NAME
FLD             .                ARTHIT / Block: 15A       :FIELD NAME
RIGN            .                          T-17            :Rig Name
RIGTYP          .                Tender Assisted           :Rig Type
SON             .                    DGEY-00011            :Service Order Number
SRVC            .                  Schlumberger            :SERVICE COMPANY
DATE            .                    07/28/2016            :LOG DATE(Composite Date for Composite LAP) (MM/DD/YYYY)
CLAB            .                     Rig Name:            :County Label
CNTY            .                          T-17            :COUNTY
SLAB            .                      Country:            :State/Province Label
STAT            .                      Thailand            :STATE or PROVINCE
PROV            .                      Thailand            :STATE or PROVINCE
CTRY            .                      Thailand            :COUNTRY
CONT_REGION     .                          Asia            :Continent Region
SECT            .                                          :Section
TOWN            .                                          :Township
RANG            .                                          :Range
API             .                                          :API NUMBER
UWI             .                                          :UNIQUE WELL ID
LUL             .                      Thailand            :Logging Unit Location
LUN             .                          7003            :Logging Unit Number
LOC             .                Gulf of Thailand          :FIELD LOCATION
FL1             .                X: 890 685.860 mE (DATUM: INDIAN 1975):Field Location Line 1
FL2             .                Y: 893 515.640 mN (UTM ZONE 47N):Field Location Line 2
LATI            .deg             8° 4' 7.168" N            :LATITUDE
LONG            .deg             102° 32' 38.971" E        :LONGITUDE
PDAT            .                           MSL            :Local Permanent Datum
LMF             .                            DF            :Logging Measured From
APD             .m                     29.00000            :Elevation of Depth Reference (LMF) Above Permanent Datum
EPD             .m                      0.00000            :Elevation of Permanent Datum (PDAT) above Mean Sea Level
EKB             .m                     29.00000            :Elevation of Kelly Bushing Above Permanent Datum
EDF             .m                     29.00000            :Elevation of Drill Floor Above Permanent Datum
EGL             .m                    -77.08000            :Elevation of Ground Level Above Permanent Datum
ECF             .m                      -999.25            :Elevation of Casing Flange above Permanent Datum
#--------------------------------------------------
~CURVE INFORMATION
#MNEM           .UNIT                  API CODE            :DESCRIPTION
#----            ------          --------------            -----------------------------
DEPT            .m                                         :                                                        Depth Index
BS              .in                                        :(RT)    (Borehole)              (6in)                   Bit Size
TENS            .lbf                                       :        (WLWorkflow)            (6in)                   Cable Tension
HTEN            .lbf                                       :        (LEH-QT)                (6in)                   Head Tension
AT10            .ohm.m                                     :        (QAIT-A)                (3in)                   Array Induction Two Foot Resistivity A10
AT20            .ohm.m                                     :        (QAIT-A)                (3in)                   Array Induction Two Foot Resistivity A20
AT30            .ohm.m                                     :        (QAIT-A)                (3in)                   Array Induction Two Foot Resistivity A30
AT60            .ohm.m                                     :        (QAIT-A)                (3in)                   Array Induction Two Foot Resistivity A60
AT90            .ohm.m                                     :        (QAIT-A)                (3in)                   Array Induction Two Foot Resistivity A90
DRHOLS          .g/cm3                                     :        (QLDT-B)                (6in)                   Density Correction Long Spacing
PEF             .                                          :        (QLDT-B)                (6in)                   Photoelectric Factor
RHOB            .g/cm3                                     :        (QLDT-B)                (6in)                   Bulk Density
CALI            .in                                        :        (QLDT-B)                (6in)                   Caliper
TNRA            .                                          :        (QCNT)                  (6in)                   Thermal Neutron Ratio
CFTC            .1/s                                       :        (QCNT)                  (6in)                   Corrected Far Thermal Count Rate
CNTC            .1/s                                       :        (QCNT)                  (6in)                   Corrected Near Thermal Count Rate
NPOR            .m3/m3                                     :        (QCNT)                  (6in)                   Enhanced Thermal Neutron Porosity in Selected Lithology
GR              .gAPI                                      :        (QTGC-B)                (6in)                   Gamma Ray
#-------------------------------------------------------------
#            DEPT           BS         TENS         HTEN         AT10         AT20         AT30         AT60         AT90       DRHOLS          PEF         RHOB         CALI         TNRA         CFTC         CNTC         NPOR           GR 
#                   (Borehole)  (WLWorkflo)     (LEH-QT)     (QAIT-A)     (QAIT-A)     (QAIT-A)     (QAIT-A)     (QAIT-A)     (QLDT-B)     (QLDT-B)     (QLDT-B)     (QLDT-B)       (QCNT)       (QCNT)       (QCNT)       (QCNT)     (QTGC-B) 
#                         (RT)                                                                                                                                                                                                                 
#                        (6in)        (6in)        (6in)        (3in)        (3in)        (3in)        (3in)        (3in)        (6in)        (6in)        (6in)        (6in)        (6in)        (6in)        (6in)        (6in)        (6in) 
~ASCII
# ...
       2558.64360      6.12500   6261.57202   1321.53150      4.19019      3.66537      3.53195      3.38586      3.33160     -0.00918     20.94186      2.26595      6.22806      4.47556    703.00920   3352.68400      0.45605    244.55230
       2558.49120      6.12500   6237.00040   1341.69664      3.00876      2.84966      2.78596      2.71708      2.66233      0.01194     19.26147      2.33494      6.22081      4.52938    815.50230   3453.68700      0.40416    273.03010
       2558.33880      6.12500   6241.57077   1338.76626      2.29633      2.30564      2.28170      2.22389      2.19029      0.02258     12.43908      2.44467      6.22081      4.59322    749.44720   4252.12300      0.28371    283.04910
       2558.18640      6.12500   6256.42839   1334.26760      2.13319      2.08581      2.03704      2.00055      1.96808      0.01156      9.52876      2.55083      6.22081      4.66530    928.90090   4622.13100      0.27846    270.70300
       2558.03400      6.12500   6269.71460   1336.73870      2.21849      2.16454      2.09471      2.03538      2.00404      0.00337      7.90496      2.59660      6.22806      4.21846   1074.64900   4802.20800      0.25911    247.08980
       2557.88160      6.12500   6267.85768   1329.76873      2.39458      2.30075      2.23101      2.15644      2.13199     -0.00341      6.85845      2.60976      6.21357      3.98588   1218.42400   5148.63300      0.23913    222.02430
       2557.72920      6.12500   6258.57082   1326.61646      2.54149      2.43241      2.35774      2.28138      2.25928     -0.00826      6.56466      2.61627      6.16285      3.89674   1239.23800   5232.33300      0.22226    201.74550
       2557.57680      6.12500   6274.42884   1335.97840      2.63924      2.56538      2.49858      2.42877      2.41891     -0.01624      6.59311      2.62196      6.22081      3.74679   1324.57400   5536.44000      0.20321    185.39610
       2557.42440      6.12500   6245.57237   1334.33078      2.74038      2.70706      2.63189      2.57550      2.63110     -0.01778      6.39792      2.61989      6.21357      3.63520   1357.46200   5076.53600      0.22410    169.14290
       2557.27200      6.12500   6234.62417   1315.97153      2.86648      2.88962      2.81814      2.76879      2.87968     -0.02476      6.97766      2.61888      6.21357      3.57471   1356.07800   5235.27800      0.21713    157.59430
       2557.11960      6.12500   6273.71395   1320.51784      2.95209      3.07139      3.03901      2.96990      3.12955     -0.03594      7.05383      2.60112      6.22081      3.61981   1336.33700   5323.62900      0.21579    153.37820
       2556.96720      6.12500   6223.71419   1325.46004      3.19027      3.21075      3.24675      3.19325      3.35745     -0.03933      7.15867      2.60743      6.22081      3.58343   1382.48900   5372.19200      0.22584    154.13030
       2556.81480      6.12500   6228.57231   1324.82653      4.03650      3.90621      4.02896      3.98302      4.33409     -0.02459      6.42479      2.61011      6.22806      3.36805   1543.24300   5775.91500      0.20589    147.01910
       2556.66240      6.12500   6240.28486   1325.17498      6.64268      5.73594      6.10213      5.99140      6.50503     -0.02818      5.53917      2.56588      6.22806      3.24189   1897.89700   6236.08600      0.18734    127.79730
       2556.51000      6.12500   6229.75031   1310.75978     14.50132      9.66602     10.57107     10.41545     11.29390     -0.04670      4.77370      2.48715      6.22806      3.09137   2055.64500   7147.59200      0.14594     99.74418
       2556.35760      6.12500   6215.71549   1308.22529     24.76148     20.38282     23.01617     21.99351     22.86057     -0.05035      4.53232      2.42921      6.23530      3.07647   2320.36100   7552.66000      0.13489     75.18549
       2556.20520      6.12500   6210.57186   1315.19526     26.57497     32.01624     31.11930     28.75934     29.51435     -0.05397      4.51536      2.39020      6.23213      2.97551   2275.19800   7365.95400      0.14055     61.07011
       2556.05280      6.12500   6189.28470   1333.26968     18.83623     23.53003     26.26408     26.88544     18.96168     -0.07063      4.16467      2.35830      6.21448      2.99172   2227.25700   7015.60900      0.16434     61.33556
       2555.90040      6.12500   6238.25034   1316.19319     13.32963     15.35543     16.79169     16.79106     15.15768     -0.07476      4.96712      2.35044      6.22488      2.99859   2000.14700   6615.43400      0.17921     68.88450
       2555.74800      6.12500   6248.71520   1328.24790     13.08354     16.06580     15.27918     14.71260     13.70073     -0.07195      5.00572      2.35193      6.23213      3.03583   2138.58200   6971.25700      0.16596     74.63277
       2555.59560      6.12500   6199.28645   1331.28956     16.85053     18.57306     17.06335     16.33667     15.57624     -0.07400      5.15201      2.34829      6.22489      3.02880   2166.01500   7084.10800      0.15302     71.78772
       2555.44320      6.12500   6252.28516   1313.19941     21.96456     20.98402     19.10658     17.03757     17.54078     -0.06575      4.70798      2.34832      6.22806      2.98639   2222.35300   7299.78800      0.14867     69.62550
       2555.29080      6.12500   6208.42943   1312.28039     24.78318     22.27608     20.85235     19.22328     19.71871     -0.06526      4.69479      2.34879      6.22081      2.98965   2269.47100   7085.99700      0.15587     71.40653
       2555.13840      6.12500   6195.42873   1312.09065     23.84803     21.58531     21.32836     19.52642     20.67306     -0.06165      4.74567      2.36449      6.22806      2.94407   2195.57400   7203.98400      0.15409     73.98975
       2554.98600      6.12500   6197.71504   1303.78981     21.82506     19.15301     19.63804     18.47880     19.61385     -0.06120      4.67703      2.37857      6.23530      2.93691   2227.25400   6986.92800      0.16453     71.36294
       2554.83360      6.12500   6191.57101   1303.91682     21.02918     18.14197     18.47673     17.91744     18.45351     -0.06128      5.17286      2.37519      6.23530      2.93099   2347.58100   7275.35200      0.14590     67.07300
       2554.68120      6.12500   6192.85692   1300.00402     19.71936     17.78053     17.79509     17.54641     17.74014     -0.07174      4.94366      2.37313      6.22488      2.98195   2339.33900   7630.88000      0.13117     64.29074
       2554.52880      6.12500   6175.75120   1300.74882     16.77990     14.95047     14.70687     14.69229     14.56797     -0.06755      4.54034      2.39367      6.22895      3.00788   2111.13500   6971.29500      0.16423     66.62012
       2554.37640      6.12500   6176.00074   1306.10264     11.94910     10.85201     10.58151     10.80668     10.50208     -0.06723      4.17528      2.41721      6.22171      3.03396   2125.61100   6766.00300      0.16923     76.09602
       2554.22400      6.12500   6176.71339   1308.35208      8.40935      7.73744      7.70171      7.79124      7.67956     -0.05090      4.73396      2.47600      6.23619      2.97592   2081.58500   6966.01500      0.14403     93.34486
       2554.07160      6.12500   6163.28555   1306.10264      6.16786      5.75020      5.72292      5.86458      5.74276     -0.03729      4.98915      2.54608      6.22895      3.01401   2045.97100   6371.34500      0.16300    114.51470
       2553.91920      6.12500   6193.00080   1308.47887      4.86668      4.67708      4.60127      4.69160      4.61150     -0.03510      5.23485      2.58467      6.22895      2.98611   1944.35600   6429.04500      0.16591    129.13400
       2553.76680      6.12500   6192.14202   1308.60566      4.94184      4.69353      4.60740      4.75109      4.63106     -0.04277      4.84296      2.59136      6.23213      2.97884   1895.98700   6173.46800      0.17059    133.78790
       2553.61440      6.12500   6168.75065   1304.32867      4.96142      4.77702      4.70931      4.83313      4.73881     -0.04507      4.93279      2.60416      6.21448      2.97185   2128.00300   6576.66000      0.14209    132.11200
