~VERSION INFORMATION 
VERS  .    2.0                                     :CWLS Log ASCII Standard - VERSION 2.0
WRAP  .    NO                                      :One Line per Depth step
PROD  .    Schlumberger Technology Corp.           :LAS Producer
PROG  .    Horizon LASWriter 6.2.68624.3100        :LAS Program name and version
SOURCE.    AT-33-F section 6.125" Run 1/1/1-Log[3]/Up:Run&Pass Information
CREA  .    07/28/2016                              :LAS Creation date {MM/DD/YYYY}
#--------------------------------------------------
~WELL INFORMATION 
#MNEM           .UNIT                      DATA            :DESCRIPTION
#----            ------          --------------            -----------------------------
STRT            .m                   3247.79640            :START DEPTH
STOP            .m                   1513.78920            :STOP DEPTH
STEP            .m                      -0.1524            :STEP
NULL            .                       -999.25            :NULL VALUE
COMP            .                         PTTEP            :COMPANY
WELL            .                       AT-33-F            :WELL NAME
FLD             .                ARTHIT / Block: 15A       :FIELD NAME
RIGN            .                          T-17            :Rig Name
RIGTYP          .                Tender Assisted           :Rig Type
SON             .                    DGEY-00011            :Service Order Number
SRVC            .                  Schlumberger            :SERVICE COMPANY
DATE            .                    07/28/2016            :LOG DATE(Composite Date for Composite LAP) (MM/DD/YYYY)
CLAB            .                     Rig Name:            :County Label
CNTY            .                          T-17            :COUNTY
SLAB            .                      Country:            :State/Province Label
STAT            .                      Thailand            :STATE or PROVINCE
PROV            .                      Thailand            :STATE or PROVINCE
CTRY            .                      Thailand            :COUNTRY
CONT_REGION     .                          Asia            :Continent Region
SECT            .                                          :Section
TOWN            .                                          :Township
RANG            .                                          :Range
API             .                                          :API NUMBER
UWI             .                                          :UNIQUE WELL ID
LUL             .                      Thailand            :Logging Unit Location
LUN             .                          7003            :Logging Unit Number
LOC             .                Gulf of Thailand          :FIELD LOCATION
FL1             .                X: 890 685.860 mE (DATUM: INDIAN 1975):Field Location Line 1
FL2             .                Y: 893 515.640 mN (UTM ZONE 47N):Field Location Line 2
LATI            .deg             8° 4' 7.168" N            :LATITUDE
LONG            .deg             102° 32' 38.971" E        :LONGITUDE
PDAT            .                           MSL            :Local Permanent Datum
LMF             .                            DF            :Logging Measured From
APD             .m                     29.00000            :Elevation of Depth Reference (LMF) Above Permanent Datum
EPD             .m                      0.00000            :Elevation of Permanent Datum (PDAT) above Mean Sea Level
EKB             .m                     29.00000            :Elevation of Kelly Bushing Above Permanent Datum
EDF             .m                     29.00000            :Elevation of Drill Floor Above Permanent Datum
EGL             .m                    -77.08000            :Elevation of Ground Level Above Permanent Datum
ECF             .m                      -999.25            :Elevation of Casing Flange above Permanent Datum
#--------------------------------------------------
~CURVE INFORMATION
#MNEM           .UNIT                  API CODE            :DESCRIPTION
#----            ------          --------------            -----------------------------
DEPT            .m                                         :                                                        Depth Index
BS              .in                                        :(RT)    (Borehole)              (6in)                   Bit Size
TENS            .lbf                                       :        (WLWorkflow)            (6in)                   Cable Tension
HTEN            .lbf                                       :        (LEH-QT)                (6in)                   Head Tension
AT10            .ohm.m                                     :        (QAIT-A)                (3in)                   Array Induction Two Foot Resistivity A10
AT20            .ohm.m                                     :        (QAIT-A)                (3in)                   Array Induction Two Foot Resistivity A20
AT30            .ohm.m                                     :        (QAIT-A)                (3in)                   Array Induction Two Foot Resistivity A30
AT60            .ohm.m                                     :        (QAIT-A)                (3in)                   Array Induction Two Foot Resistivity A60
AT90            .ohm.m                                     :        (QAIT-A)                (3in)                   Array Induction Two Foot Resistivity A90
DRHOLS          .g/cm3                                     :        (QLDT-B)                (6in)                   Density Correction Long Spacing
PEF             .                                          :        (QLDT-B)                (6in)                   Photoelectric Factor
RHOB            .g/cm3                                     :        (QLDT-B)                (6in)                   Bulk Density
CALI            .in                                        :        (QLDT-B)                (6in)                   Caliper
TNRA            .                                          :        (QCNT)                  (6in)                   Thermal Neutron Ratio
CFTC            .1/s                                       :        (QCNT)                  (6in)                   Corrected Far Thermal Count Rate
CNTC            .1/s                                       :        (QCNT)                  (6in)                   Corrected Near Thermal Count Rate
NPOR            .m3/m3                                     :        (QCNT)                  (6in)                   Enhanced Thermal Neutron Porosity in Selected Lithology
GR              .gAPI                                      :        (QTGC-B)                (6in)                   Gamma Ray
#-------------------------------------------------------------
#            DEPT           BS         TENS         HTEN         AT10         AT20         AT30         AT60         AT90       DRHOLS          PEF         RHOB         CALI         TNRA         CFTC         CNTC         NPOR           GR 
#                   (Borehole)  (WLWorkflo)     (LEH-QT)     (QAIT-A)     (QAIT-A)     (QAIT-A)     (QAIT-A)     (QAIT-A)     (QLDT-B)     (QLDT-B)     (QLDT-B)     (QLDT-B)       (QCNT)       (QCNT)       (QCNT)       (QCNT)     (QTGC-B) 
#                         (RT)                                                                                                                                                                                                                 
#                        (6in)        (6in)        (6in)        (3in)        (3in)        (3in)        (3in)        (3in)        (6in)        (6in)        (6in)        (6in)        (6in)        (6in)        (6in)        (6in)        (6in) 
~ASCII
# ...
       2102.66280      6.12500   5362.37446   1298.21410      1.66131      1.61078      1.59175      1.56796      1.54378      0.06356      0.00000      2.59679      6.18365      4.46746    901.45650   4335.46800      0.27182    122.13350
       2102.51040      6.12500   5311.99928   1274.94390      1.66946      1.61503      1.59791      1.58327      1.55178      0.06176      6.68196      2.61935      6.18365      4.25414    873.39170   4206.87300      0.26451    124.12640
       2102.35800      6.12500   5251.71451   1259.75288      1.68499      1.62924      1.60591      1.58552      1.55274      0.03236      9.45096      2.61270      6.19090      4.22579   1013.43300   4215.58600      0.27026    122.42930
       2102.20560      6.12500   5280.57099   1250.18501      1.66634      1.62241      1.60198      1.58226      1.54309      0.01245      9.87345      2.62314      6.19090      4.18358    921.64900   4347.90500      0.25029    121.19640
       2102.05320      6.12500   5267.87602   1280.37730      1.65183      1.61691      1.58829      1.56918      1.53126      0.00830      7.77080      2.64729      6.18365      4.27633    983.78300   4604.04200      0.23705    122.08860
       2101.90080      6.12500   5291.42926   1271.06302      1.63302      1.59787      1.57466      1.55756      1.52017      0.01666      6.43020      2.67304      6.19090      4.09706   1006.09800   4487.46500      0.22903    123.83080
       2101.74840      6.12500   5352.99993   1265.01206      1.63862      1.60255      1.57871      1.55931      1.51937      0.01650      9.66243      2.67417      6.19090      3.92950   1047.22600   4331.93700      0.24501    125.27650
       2101.59600      6.12500   5297.00002   1277.93813      1.64891      1.61167      1.58895      1.56789      1.52795      0.03477     10.16329      2.66316      6.18365      4.11536   1013.33800   4192.12100      0.26105    127.94810
       2101.44360      6.12500   5323.62415   1276.71831      1.65941      1.61711      1.59529      1.57800      1.53534      0.03778      9.89037      2.63700      6.17639      4.33780    912.00100   4617.08100      0.24772    131.62710
       2101.29120      6.12500   5316.71352   1256.64805      1.68966      1.64417      1.61679      1.59037      1.55875      0.05437      9.28870      2.64088      6.18365      4.43807    907.78280   4409.46300      0.26510    134.94090
       2101.13880      6.12500   5298.14205   1248.41082      1.65487      1.62383      1.60490      1.57817      1.55502      0.06316     10.78859      2.63425      6.19815      4.19133   1002.77400   4474.24900      0.25374    137.93750
       2100.98640      6.12500   5275.57123   1261.08353      1.60399      1.57651      1.56557      1.54122      1.51962      0.06971     13.13346      2.61514      6.19815      4.17253   1023.13000   4361.59600      0.24964    137.26910
       2100.83400      6.12500   5257.24931   1274.76967      1.57144      1.54807      1.54171      1.52107      1.50110      0.05222     15.72974      2.58526      6.19815      4.23022    928.89400   4455.43600      0.25420    133.60590
       2100.68160      6.12500   5311.71377   1289.69181      1.63341      1.59592      1.58223      1.55329      1.53598      0.06396     15.29621      2.59539      6.18365      4.37198    928.89110   4318.25200      0.27831    130.84440
       2100.52920      6.12500   5302.85854   1300.87538      1.70335      1.65784      1.64721      1.62587      1.60153      0.05720     16.03635      2.60334      6.19090      4.25624    945.78220   4466.33200      0.24688    130.79380
       2100.37680      6.12500   5355.14236   1309.42914      1.73106      1.68937      1.68523      1.67239      1.63944      0.04859     13.22894      2.60683      6.18365      4.20512   1030.32500   4555.49600      0.23861    128.81280
       2100.22440      6.12500   5390.87574   1300.87538      1.73668      1.70682      1.71001      1.70622      1.66767      0.04957     10.62078      2.61715      6.17639      4.16194    931.00750   4173.87100      0.27165    127.10430
       2100.07200      6.12500   5379.57235   1276.49643      1.76873      1.74011      1.73472      1.73833      1.69514      0.04458      9.73660      2.62005      6.17639      4.24483    960.25600   4400.33700      0.27113    129.37270
       2099.91960      6.12500   5320.85675   1250.56539      1.88992      1.86551      1.85387      1.86462      1.82070      0.04704      8.82105      2.63508      6.19815      4.34120    962.66370   4514.90400      0.26387    133.68430
       2099.76720      6.12500   5270.28598   1264.25153      2.07473      2.07457      2.05733      2.02907      2.02465      0.04311      8.98687      2.63097      6.17639      4.13191    979.65810   4697.92600      0.24055    127.60600
       2099.61480      6.12500   5250.42860   1252.21279      2.28723      2.25915      2.24849      2.20857      2.24333      0.03567      7.30939      2.61560      6.17639      3.93306   1230.48800   4804.10100      0.22793    118.10980
       2099.46240      6.12500   5269.00007   1242.83489      2.40135      2.35861      2.34134      2.24010      2.30790      0.02401      7.06065      2.60306      6.19090      3.77215   1215.99700   4919.48500      0.22519    113.79650
       2099.31000      6.12500   5277.99917   1272.28283      2.51944      2.46335      2.43927      2.34791      2.43473      0.02081      6.63938      2.60596      6.19090      3.82165   1206.35000   5155.98600      0.21763    117.24000
       2099.15760      6.12500   5299.28633   1267.92671      2.67506      2.61444      2.59507      2.51760      2.59661      0.01123      7.17036      2.59881      6.18365      3.83521   1353.35200   5500.85500      0.19862    120.07260
       2099.00520      6.12500   5287.28603   1272.39366      2.66454      2.57840      2.58897      2.56159      2.58403      0.00529      6.31290      2.61117      6.18365      3.80250   1319.75000   5397.24000      0.19588    118.40990
       2098.85280      6.12500   5319.37526   1263.36444      2.31694      2.25242      2.26195      2.25459      2.26841      0.00183      7.08118      2.64822      6.18365      3.76842   1243.45100   5182.77100      0.21241    116.95920
       2098.70040      6.12500   5281.42751   1259.68926      2.10361      2.04350      2.03479      2.05163      2.00551     -0.01166      7.72203      2.66116      6.18365      3.72218   1187.84900   4696.93200      0.24261    118.94150
       2098.54800      6.12500   5285.42911   1262.96832      2.05750      1.98577      2.00192      2.02901      2.00867     -0.00002      7.98279      2.68443      6.18365      3.83169   1209.67500   4765.83100      0.23617    124.32390
       2098.39560      6.12500   5271.28638   1270.33441      2.06112      1.98448      2.00678      2.03877      2.01570     -0.00104      7.82511      2.66492      6.19090      4.17167   1127.44600   5099.36800      0.22394    132.10890
       2098.24320      6.12500   5259.42770   1281.48629      2.03047      1.94557      1.95877      1.95690      1.96734      0.00378      7.69573      2.62707      6.19090      4.38891    972.32090   4915.91800      0.25623    140.77620
       2098.09080      6.12500   5293.28618   1296.56670      2.00379      1.90646      1.91311      1.88772      1.92142      0.02148      0.91570      2.61188      6.18365      4.29885   1013.34200   4705.70900      0.26559    145.55800
       2097.93840      6.12500   5329.37476   1295.90149      2.00840      1.90523      1.90708      1.86873      1.88018      0.06466      0.00000      2.64347      6.18774      4.19548   1092.95500   4624.38900      0.25854    146.28870
       2097.78600      6.12500   5348.57119   1300.62180      2.06737      1.94834      1.94569      1.90226      1.90409      0.07124      7.64339      2.63080      6.18459      4.21119    943.76860   4455.43400      0.26147    140.16310
       2097.63360      6.12500   5312.57254   1315.86047      2.12179      2.01539      2.00763      1.97506      1.92946      0.08494     23.36885      2.63149      6.19183      4.30637    974.73240   4576.02600      0.25801    132.87790
