~VERSION INFORMATION 
VERS  .    2.0                                     :CWLS Log ASCII Standard - VERSION 2.0
WRAP  .    NO                                      :One Line per Depth step
PROD  .    Schlumberger Technology Corp.           :LAS Producer
PROG  .    Horizon LASWriter 6.2.68624.3100        :LAS Program name and version
SOURCE.    AT-33-F section 6.125" Run 1/1/1-Log[3]/Up:Run&Pass Information
CREA  .    07/28/2016                              :LAS Creation date {MM/DD/YYYY}
#--------------------------------------------------
~WELL INFORMATION 
#MNEM           .UNIT                      DATA            :DESCRIPTION
#----            ------          --------------            -----------------------------
STRT            .m                   3247.79640            :START DEPTH
STOP            .m                   1513.78920            :STOP DEPTH
STEP            .m                      -0.1524            :STEP
NULL            .                       -999.25            :NULL VALUE
COMP            .                         PTTEP            :COMPANY
WELL            .                       AT-33-F            :WELL NAME
FLD             .                ARTHIT / Block: 15A       :FIELD NAME
RIGN            .                          T-17            :Rig Name
RIGTYP          .                Tender Assisted           :Rig Type
SON             .                    DGEY-00011            :Service Order Number
SRVC            .                  Schlumberger            :SERVICE COMPANY
DATE            .                    07/28/2016            :LOG DATE(Composite Date for Composite LAP) (MM/DD/YYYY)
CLAB            .                     Rig Name:            :County Label
CNTY            .                          T-17            :COUNTY
SLAB            .                      Country:            :State/Province Label
STAT            .                      Thailand            :STATE or PROVINCE
PROV            .                      Thailand            :STATE or PROVINCE
CTRY            .                      Thailand            :COUNTRY
CONT_REGION     .                          Asia            :Continent Region
SECT            .                                          :Section
TOWN            .                                          :Township
RANG            .                                          :Range
API             .                                          :API NUMBER
UWI             .                                          :UNIQUE WELL ID
LUL             .                      Thailand            :Logging Unit Location
LUN             .                          7003            :Logging Unit Number
LOC             .                Gulf of Thailand          :FIELD LOCATION
FL1             .                X: 890 685.860 mE (DATUM: INDIAN 1975):Field Location Line 1
FL2             .                Y: 893 515.640 mN (UTM ZONE 47N):Field Location Line 2
LATI            .deg             8° 4' 7.168" N            :LATITUDE
LONG            .deg             102° 32' 38.971" E        :LONGITUDE
PDAT            .                           MSL            :Local Permanent Datum
LMF             .                            DF            :Logging Measured From
APD             .m                     29.00000            :Elevation of Depth Reference (LMF) Above Permanent Datum
EPD             .m                      0.00000            :Elevation of Permanent Datum (PDAT) above Mean Sea Level
EKB             .m                     29.00000            :Elevation of Kelly Bushing Above Permanent Datum
EDF             .m                     29.00000            :Elevation of Drill Floor Above Permanent Datum
EGL             .m                    -77.08000            :Elevation of Ground Level Above Permanent Datum
ECF             .m                      -999.25            :Elevation of Casing Flange above Permanent Datum
#--------------------------------------------------
~CURVE INFORMATION
#MNEM           .UNIT                  API CODE            :DESCRIPTION
#----            ------          --------------            -----------------------------
DEPT            .m                                         :                                                        Depth Index
BS              .in                                        :(RT)    (Borehole)              (6in)                   Bit Size
TENS            .lbf                                       :        (WLWorkflow)            (6in)                   Cable Tension
HTEN            .lbf                                       :        (LEH-QT)                (6in)                   Head Tension
AT10            .ohm.m                                     :        (QAIT-A)                (3in)                   Array Induction Two Foot Resistivity A10
AT20            .ohm.m                                     :        (QAIT-A)                (3in)                   Array Induction Two Foot Resistivity A20
AT30            .ohm.m                                     :        (QAIT-A)                (3in)                   Array Induction Two Foot Resistivity A30
AT60            .ohm.m                                     :        (QAIT-A)                (3in)                   Array Induction Two Foot Resistivity A60
AT90            .ohm.m                                     :        (QAIT-A)                (3in)                   Array Induction Two Foot Resistivity A90
DRHOLS          .g/cm3                                     :        (QLDT-B)                (6in)                   Density Correction Long Spacing
PEF             .                                          :        (QLDT-B)                (6in)                   Photoelectric Factor
RHOB            .g/cm3                                     :        (QLDT-B)                (6in)                   Bulk Density
CALI            .in                                        :        (QLDT-B)                (6in)                   Caliper
TNRA            .                                          :        (QCNT)                  (6in)                   Thermal Neutron Ratio
CFTC            .1/s                                       :        (QCNT)                  (6in)                   Corrected Far Thermal Count Rate
CNTC            .1/s                                       :        (QCNT)                  (6in)                   Corrected Near Thermal Count Rate
NPOR            .m3/m3                                     :        (QCNT)                  (6in)                   Enhanced Thermal Neutron Porosity in Selected Lithology
GR              .gAPI                                      :        (QTGC-B)                (6in)                   Gamma Ray
#-------------------------------------------------------------
#            DEPT           BS         TENS         HTEN         AT10         AT20         AT30         AT60         AT90       DRHOLS          PEF         RHOB         CALI         TNRA         CFTC         CNTC         NPOR           GR 
#                   (Borehole)  (WLWorkflo)     (LEH-QT)     (QAIT-A)     (QAIT-A)     (QAIT-A)     (QAIT-A)     (QAIT-A)     (QLDT-B)     (QLDT-B)     (QLDT-B)     (QLDT-B)       (QCNT)       (QCNT)       (QCNT)       (QCNT)     (QTGC-B) 
#                         (RT)                                                                                                                                                                                                                 
#                        (6in)        (6in)        (6in)        (3in)        (3in)        (3in)        (3in)        (3in)        (6in)        (6in)        (6in)        (6in)        (6in)        (6in)        (6in)        (6in)        (6in) 
~ASCII
# ...
       1537.86840      8.50000      -999.25      -999.25      -999.25      -999.25      -999.25      -999.25      -999.25     -1.02019     25.00000      1.77851      6.17397      4.60012    510.88680   2589.87400      0.26385     50.59822
       1537.71600      8.50000      -999.25      -999.25      -999.25      -999.25      -999.25      -999.25      -999.25     -0.99307     25.00000      1.83841      6.18365      4.65999    529.18270   2583.92800      0.27435     53.44782
       1537.56360      8.50000      -999.25      -999.25      -999.25      -999.25      -999.25      -999.25      -999.25     -0.96900     25.00000      1.89716      6.21749      4.77957    512.32650   2637.84300      0.30482     52.79659
       1537.41120      8.50000      -999.25      -999.25      -999.25      -999.25      -999.25      -999.25      -999.25     -0.94421     25.00000      1.96783      6.16914      4.88953    518.94940   2831.85300      0.27873     50.54012
       1537.25880      8.50000      -999.25      -999.25      -999.25      -999.25      -999.25      -999.25      -999.25     -0.97052     25.00000      2.02575      6.17881      4.98526    586.92210   3074.99200      0.25625     48.71091
       1537.10640      8.50000      -999.25      -999.25      -999.25      -999.25      -999.25      -999.25      -999.25     -0.97075     25.00000      2.16028      6.16914      4.90503    522.14580   2850.39200      0.28649     48.63285
       1536.95400      8.50000      -999.25      -999.25      -999.25      -999.25      -999.25      -999.25      -999.25     -0.94375     25.00000      2.32026      6.16914      4.86976    522.05630   2713.06400      0.33380     44.29055
       1536.80160      8.50000      -999.25      -999.25      -999.25      -999.25      -999.25      -999.25      -999.25     -0.94539     25.00000      2.33033      6.16914      4.83508    534.81610   2740.88300      0.30428     39.00933
       1536.64920      8.50000      -999.25      -999.25      -999.25      -999.25      -999.25      -999.25      -999.25     -1.00946     25.00000      2.16327      6.17397      5.06965    565.04650   3021.08400      0.28095     36.05937
       1536.49680      8.50000      -999.25      -999.25      -999.25      -999.25      -999.25      -999.25      -999.25     -1.03271     25.00000      2.00333      6.18365      5.32412    488.24370   2908.47600      0.31630     38.42915
       1536.34440      8.50000      -999.25      -999.25      -999.25      -999.25      -999.25      -999.25      -999.25     -1.01644     25.00000      1.93840      6.17881      5.20774    475.99340   2831.93500      0.35708     41.57057
       1536.19200      8.50000      -999.25      -999.25      -999.25      -999.25      -999.25      -999.25      -999.25     -1.00933     25.00000      1.90244      6.17881      4.86050    549.65460   2731.50100      0.32372     45.69188
       1536.03960      8.50000      -999.25      -999.25      -999.25      -999.25      -999.25      -999.25      -999.25     -1.02227     25.00000      1.89052      6.17881      4.41618    638.99080   3087.44400      0.22958     44.09290
       1535.88720      8.50000      -999.25      -999.25      -999.25      -999.25      -999.25      -999.25      -999.25     -1.03248     25.00000      1.85573      6.17397      4.26679    707.79750   3191.94500      0.18455     42.77517
       1535.73480      8.50000      -999.25      -999.25      -999.25      -999.25      -999.25      -999.25      -999.25     -1.01720     25.00000      1.86902      6.17881      4.32159    683.23040   3064.54300      0.21630     43.60485
       1535.58240      8.50000      -999.25      -999.25      -999.25      -999.25      -999.25      -999.25      -999.25     -1.01844     25.00000      1.86974      6.17881      4.41052    523.60230   2622.90000      0.27789     48.24643
       1535.43000      8.50000      -999.25      -999.25      -999.25      -999.25      -999.25      -999.25      -999.25     -1.01028     25.00000      1.88470      6.17397      4.68434    561.93630   2696.10400      0.29137     57.46824
       1535.27760      8.50000      -999.25      -999.25      -999.25      -999.25      -999.25      -999.25      -999.25     -0.96528     25.00000      1.97138      6.17881      4.80777    499.02370   2681.09900      0.27572     66.28468
       1535.12520      8.50000      -999.25      -999.25      -999.25      -999.25      -999.25      -999.25      -999.25     -0.94763     25.00000      2.01815      6.17881      4.73701    495.40280   2679.78900      0.28038     71.59659
       1534.97280      8.50000      -999.25      -999.25      -999.25      -999.25      -999.25      -999.25      -999.25     -0.94690     25.00000      2.03591      6.17881      4.63037    578.47550   2642.81100      0.26139     67.95221
       1534.82040      8.50000      -999.25      -999.25      -999.25      -999.25      -999.25      -999.25      -999.25     -0.96930     25.00000      1.97514      6.18365      4.44312    552.72510   2778.61800      0.22858     60.91761
       1534.66800      8.50000      -999.25      -999.25      -999.25      -999.25      -999.25      -999.25      -999.25     -1.00505     25.00000      1.87911      6.22716      4.65292    534.83900   2568.57600      0.26697     57.06790
       1534.51560      8.50000      -999.25      -999.25      -999.25      -999.25      -999.25      -999.25      -999.25     -1.05668     25.00000      1.74652      6.16914      4.68382    488.36910   2563.17800      0.28979     54.29548
       1534.36320      8.50000      -999.25      -999.25      -999.25      -999.25      -999.25      -999.25      -999.25     -1.08833     25.00000      1.68330      6.17881      4.69497    488.24050   2503.34300      0.28610     52.62906
       1534.21080      8.50000      -999.25      -999.25      -999.25      -999.25      -999.25      -999.25      -999.25     -1.09651     25.00000      1.67134      6.18365      4.60533    550.33210   2662.86000      0.25316     46.97738
       1534.05840      8.50000      -999.25      -999.25      -999.25      -999.25      -999.25      -999.25      -999.25     -1.08815     25.00000      1.69884      6.19815      4.67299    540.44350   2679.50500      0.25307     41.77492
       1533.90600      8.50000      -999.25      -999.25      -999.25      -999.25      -999.25      -999.25      -999.25     -1.09954     25.00000      1.68053      6.18365      4.86487    489.80620   2618.76400      0.29711     41.14516
       1533.75360      8.50000      -999.25      -999.25      -999.25      -999.25      -999.25      -999.25      -999.25     -1.11091     25.00000      1.68038      6.18365      5.15471    477.11020   2605.22800      0.33587     44.66193
       1533.60120      8.50000      -999.25      -999.25      -999.25      -999.25      -999.25      -999.25      -999.25     -1.08958     25.00000      1.73104      6.18365      5.26103    460.24430   2714.16100      0.33265     51.09377
       1533.44880      8.50000      -999.25      -999.25      -999.25      -999.25      -999.25      -999.25      -999.25     -1.06180      -999.25      1.80919      6.19331      5.14477    482.10110   2743.66600      0.30297     54.85425
       1533.29640      8.50000      -999.25      -999.25      -999.25      -999.25      -999.25      -999.25      -999.25     -1.05767      -999.25      1.86223      6.18848      4.99257    548.93390   2790.61000      0.29899     56.68842
       1533.14400      8.50000      -999.25      -999.25      -999.25      -999.25      -999.25      -999.25      -999.25     -1.03933      -999.25      1.93695      6.18365      4.87792    493.99910   2669.56400      0.30946     60.74592
       1532.99160      8.50000      -999.25      -999.25      -999.25      -999.25      -999.25      -999.25      -999.25     -1.02047      -999.25      1.99362      6.18848      4.75764    529.74030   2817.98400      0.29198     63.20713
       1532.83920      8.50000      -999.25      -999.25      -999.25      -999.25      -999.25      -999.25      -999.25     -1.03282      -999.25      1.99317      6.19183      4.66430    616.44160   2893.51200      0.27106     64.94974
