~VERSION INFORMATION 
VERS  .    2.0                                     :CWLS Log ASCII Standard - VERSION 2.0
WRAP  .    NO                                      :One Line per Depth step
PROD  .    Schlumberger Technology Corp.           :LAS Producer
PROG  .    Horizon LASWriter 6.2.68624.3100        :LAS Program name and version
SOURCE.    AT-33-F section 6.125" Run 1/1/1-Log[2]/Down:Run&Pass Information
CREA  .    07/28/2016                              :LAS Creation date {MM/DD/YYYY}
#--------------------------------------------------
~WELL INFORMATION 
#MNEM           .UNIT                      DATA            :DESCRIPTION
#----            ------          --------------            -----------------------------
STRT            .m                   1518.36120            :START DEPTH
STOP            .m                   3242.61480            :STOP DEPTH
STEP            .m                       0.1524            :STEP
NULL            .                       -999.25            :NULL VALUE
COMP            .                         PTTEP            :COMPANY
WELL            .                       AT-33-F            :WELL NAME
FLD             .                ARTHIT / Block: 15A       :FIELD NAME
RIGN            .                          T-17            :Rig Name
RIGTYP          .                Tender Assisted           :Rig Type
SON             .                    DGEY-00011            :Service Order Number
SRVC            .                  Schlumberger            :SERVICE COMPANY
DATE            .                    07/28/2016            :LOG DATE(Composite Date for Composite LAP) (MM/DD/YYYY)
CLAB            .                     Rig Name:            :County Label
CNTY            .                          T-17            :COUNTY
SLAB            .                      Country:            :State/Province Label
STAT            .                      Thailand            :STATE or PROVINCE
PROV            .                      Thailand            :STATE or PROVINCE
CTRY            .                      Thailand            :COUNTRY
CONT_REGION     .                          Asia            :Continent Region
SECT            .                                          :Section
TOWN            .                                          :Township
RANG            .                                          :Range
API             .                                          :API NUMBER
UWI             .                                          :UNIQUE WELL ID
LUL             .                      Thailand            :Logging Unit Location
LUN             .                          7003            :Logging Unit Number
LOC             .                Gulf of Thailand          :FIELD LOCATION
FL1             .                X: 890 685.860 mE (DATUM: INDIAN 1975):Field Location Line 1
FL2             .                Y: 893 515.640 mN (UTM ZONE 47N):Field Location Line 2
LATI            .deg             8° 4' 7.168" N            :LATITUDE
LONG            .deg             102° 32' 38.971" E        :LONGITUDE
PDAT            .                           MSL            :Local Permanent Datum
LMF             .                            DF            :Logging Measured From
APD             .m                     29.00000            :Elevation of Depth Reference (LMF) Above Permanent Datum
EPD             .m                      0.00000            :Elevation of Permanent Datum (PDAT) above Mean Sea Level
EKB             .m                     29.00000            :Elevation of Kelly Bushing Above Permanent Datum
EDF             .m                     29.00000            :Elevation of Drill Floor Above Permanent Datum
EGL             .m                    -77.08000            :Elevation of Ground Level Above Permanent Datum
ECF             .m                      -999.25            :Elevation of Casing Flange above Permanent Datum
#--------------------------------------------------
~CURVE INFORMATION
#MNEM           .UNIT                  API CODE            :DESCRIPTION
#----            ------          --------------            -----------------------------
DEPT            .m                                         :                                                        Depth Index
BS              .in                                        :(RT)    (Borehole)              (6in)                   Bit Size
TENS            .lbf                                       :        (WLWorkflow)            (6in)                   Cable Tension
HTEN            .lbf                                       :        (LEH-QT)                (6in)                   Head Tension
AT10            .ohm.m                                     :        (QAIT-A)                (3in)                   Array Induction Two Foot Resistivity A10
AT20            .ohm.m                                     :        (QAIT-A)                (3in)                   Array Induction Two Foot Resistivity A20
AT30            .ohm.m                                     :        (QAIT-A)                (3in)                   Array Induction Two Foot Resistivity A30
AT60            .ohm.m                                     :        (QAIT-A)                (3in)                   Array Induction Two Foot Resistivity A60
AT90            .ohm.m                                     :        (QAIT-A)                (3in)                   Array Induction Two Foot Resistivity A90
DRHOLS          .g/cm3                                     :        (QLDT-B)                (6in)                   Density Correction Long Spacing
PEF             .                                          :        (QLDT-B)                (6in)                   Photoelectric Factor
RHOB            .g/cm3                                     :        (QLDT-B)                (6in)                   Bulk Density
CALI            .in                                        :        (QLDT-B)                (6in)                   Caliper
TNRA            .                                          :        (QCNT)                  (6in)                   Thermal Neutron Ratio
CFTC            .1/s                                       :        (QCNT)                  (6in)                   Corrected Far Thermal Count Rate
CNTC            .1/s                                       :        (QCNT)                  (6in)                   Corrected Near Thermal Count Rate
NPOR            .m3/m3                                     :        (QCNT)                  (6in)                   Enhanced Thermal Neutron Porosity in Selected Lithology
GR              .gAPI                                      :        (QTGC-B)                (6in)                   Gamma Ray
#-------------------------------------------------------------
#            DEPT           BS         TENS         HTEN         AT10         AT20         AT30         AT60         AT90       DRHOLS          PEF         RHOB         CALI         TNRA         CFTC         CNTC         NPOR           GR 
#                   (Borehole)  (WLWorkflo)     (LEH-QT)     (QAIT-A)     (QAIT-A)     (QAIT-A)     (QAIT-A)     (QAIT-A)     (QLDT-B)     (QLDT-B)     (QLDT-B)     (QLDT-B)       (QCNT)       (QCNT)       (QCNT)       (QCNT)     (QTGC-B) 
#                         (RT)                                                                                                                                                                                                                 
#                        (6in)        (6in)        (6in)        (3in)        (3in)        (3in)        (3in)        (3in)        (6in)        (6in)        (6in)        (6in)        (6in)        (6in)        (6in)        (6in)        (6in) 
~ASCII
# ...
       2435.50440      6.12500   2211.25021   1096.53012      2.37027      2.29463      2.26316      2.26414      2.20887     -0.03824      4.90293      2.63607      6.21448      3.86048   1262.45900   5392.90200      0.22729    130.70600
       2435.65680      6.12500   2226.33332   1101.40915      2.31989      2.25603      2.22451      2.22988      2.17687     -0.01751      4.97832      2.66916      6.21448      3.90225   1270.94700   5483.96400      0.22120    131.16100
       2435.80920      6.12500   2224.49978   1120.25961      2.37064      2.31503      2.27427      2.28752      2.23088     -0.03587      6.25075      2.64440      6.21448      3.96973   1351.14800   5484.14600      0.23310    130.40310
       2435.96160      6.12500   2236.00011   1118.70730      2.45200      2.40247      2.36992      2.37650      2.31647     -0.03642      6.69243      2.63998      6.22895      3.80679   1220.25800   5479.48400      0.22441    129.94420
       2436.11400      6.12500   2242.99998   1108.80155      2.50921      2.44981      2.41590      2.41809      2.36425     -0.03159      6.60627      2.64040      6.22895      3.78678   1397.59200   5292.43900      0.23055    131.00140
       2436.26640      6.12500   2257.00086   1098.74786      2.51022      2.45184      2.41234      2.40541      2.34686     -0.04421      6.33240      2.62644      6.21448      3.52207   1376.48100   5497.73000      0.19394    134.34030
       2436.41880      6.12500   2258.99941   1088.54648      2.52361      2.45516      2.41786      2.41095      2.35490     -0.05688      6.31809      2.60954      6.22895      3.51209   1482.03900   5383.67400      0.20043    139.08900
       2436.57120      6.12500   2246.75002   1090.32068      2.54872      2.48739      2.45078      2.44335      2.38662     -0.05061      6.75424      2.61310      6.21448      3.58861   1414.48200   5310.68500      0.21151    143.75730
       2436.72360      6.12500   2229.50020   1090.09879      2.56252      2.50466      2.46583      2.45820      2.39889     -0.05294      5.92874      2.59695      6.22895      3.83553   1308.92700   5552.48700      0.22060    147.47760
       2436.87600      6.12500   2204.33329   1079.89763      2.57656      2.51455      2.48070      2.47040      2.41498     -0.05314      6.22806      2.61529      6.22895      3.91252   1210.40400   5365.43800      0.23346    147.80730
       2437.02840      6.12500   2206.00003   1068.36561      2.59946      2.53148      2.49912      2.49609      2.43122     -0.04408      6.18087      2.63565      6.21448      3.65698   1376.48200   5511.42600      0.21044    142.84260
       2437.18080      6.12500   2209.75006   1066.81308      2.59414      2.52591      2.49219      2.48741      2.41625     -0.02467      6.55772      2.65742      6.21448      3.39605   1562.26800   5333.48600      0.19363    139.85170
       2437.33320      6.12500   2201.25004   1075.68404      2.57064      2.51066      2.46937      2.47138      2.39600     -0.03300      5.84271      2.63418      6.22895      3.38579   1558.04200   5588.99700      0.18304    138.22560
       2437.48560      6.12500   2183.33321   1092.53842      2.59821      2.53847      2.50396      2.50540      2.43212     -0.03834      5.63357      2.63112      6.21448      3.43022   1389.15200   5515.98500      0.18916    141.16750
       2437.63800      6.12500   2193.00000   1102.00062      2.64733      2.58424      2.55430      2.54853      2.48310     -0.03870      5.77457      2.63120      6.22895      3.47251   1558.04200   5543.37400      0.20005    146.34530
       2437.79040      6.12500   2205.00008   1107.61883      2.66310      2.61098      2.57366      2.57340      2.50421     -0.03121      5.98339      2.65182      6.22895      3.51813   1503.15600   5598.10700      0.19562    149.16980
       2437.94280      6.12500   2220.00000   1110.50178      2.68861      2.62857      2.59679      2.59724      2.53198     -0.04172      6.78863      2.63977      6.22895      3.60688   1389.14800   5721.30900      0.20106    147.58250
       2438.09520      6.12500   2235.33332   1120.48127      2.70859      2.63461      2.60386      2.60067      2.54341     -0.04724      6.86697      2.62654      6.22895      3.82150   1435.57500   5520.54600      0.22465    140.47580
       2438.24760      6.12500   2251.74932   1120.92504      2.71429      2.64663      2.61263      2.60582      2.55744     -0.05707      6.79631      2.59883      6.22895      3.79343   1277.96300   5648.23000      0.22033    137.29660
       2438.40000      6.12500   2259.50073   1124.02965      2.75490      2.68074      2.64959      2.64101      2.59223     -0.06141      6.73719      2.58448      6.21448      3.74998   1321.59000   5322.85000      0.23448    139.59400
       2438.55240      6.12500   2248.66719   1129.13034      2.79889      2.71931      2.69285      2.68288      2.63241     -0.05345      6.41274      2.59081      6.22895      3.54989   1477.82200   5474.92700      0.21243    148.94650
       2438.70480      6.12500   2252.74972   1127.72596      2.79547      2.71624      2.68965      2.68165      2.63000     -0.06967      6.94744      2.56693      6.22895      3.50399   1507.37400   5684.80400      0.18895    159.49170
       2438.85720      6.12500   2254.50098   1117.59832      2.79936      2.71640      2.68919      2.68627      2.62366     -0.07545      7.04559      2.55439      6.21448      3.52121   1482.05100   5748.67000      0.20124    162.54590
       2439.00960      6.12500   2247.50021   1108.94947      2.83022      2.75989      2.73387      2.72997      2.66209     -0.08823      7.28696      2.53276      6.22895      3.66761   1494.72600   5620.94200      0.22010    156.70630
       2439.16200      6.12500   2250.00031   1109.83657      2.86727      2.79844      2.77820      2.79149      2.70399     -0.07240      6.39370      2.56238      6.22895      3.46703   1431.37500   6077.25500      0.18024    144.89340
       2439.31440      6.12500   2244.25014   1109.83634      2.89914      2.83670      2.81977      2.82689      2.71829     -0.07017      5.53643      2.58007      6.22895      3.59585   1786.04800   5766.93200      0.20230    133.05770
       2439.46680      6.12500   2231.74987   1111.61053      2.92822      2.85759      2.84336      2.84642      2.75925     -0.06278      5.22070      2.59880      6.22895      3.32631   1413.07600   5903.79100      0.17612    126.32610
       2439.61920      6.12500   2221.74992   1116.48956      2.93401      2.88137      2.86067      2.86580      2.79253     -0.05113      4.73020      2.62176      6.22895      3.45610   1722.71700   5809.50600      0.20001    126.25680
       2439.77160      6.12500   2211.66679   1114.27182      2.93495      2.89615      2.88575      2.89216      2.82662     -0.03628      4.96708      2.64738      6.22895      3.22871   1532.70800   5593.56000      0.20429    132.13940
       2439.92400      6.12500   2210.25026   1104.07044      2.86262      2.82115      2.80181      2.81112      2.76592     -0.03380      6.18219      2.66947      6.22895      3.32772   1807.16500   6218.60100      0.18224    138.14300
       2440.07640      6.12500   2218.74984   1100.52206      2.76207      2.72174      2.69934      2.70671      2.67535     -0.03298      6.95704      2.64418      6.22895      3.21168   1798.71500   6642.92100      0.15787    142.08310
       2440.22880      6.12500   2222.33330   1090.98589      2.80861      2.77275      2.75130      2.77016      2.75176     -0.03798      6.69207      2.62263      6.22895      3.06464   2009.83700   6579.03200      0.15532    146.02100
       2440.38120      6.12500   2229.74997   1110.72344      3.07046      3.04174      3.03720      3.07598      3.06177     -0.04902      6.30949      2.58609      6.22895      2.87125   2322.31300   6884.73200      0.14092    149.25370
       2440.53360      6.12500   2235.74989   1117.37666      3.43155      3.41058      3.39123      3.44437      3.42195     -0.04243      6.07511      2.60777      6.22895      2.84748   2187.17400   6706.87700      0.14482    150.73730
