~VERSION INFORMATION 
VERS  .    2.0                                     :CWLS Log ASCII Standard - VERSION 2.0
WRAP  .    NO                                      :One Line per Depth step
PROD  .    Schlumberger Technology Corp.           :LAS Producer
PROG  .    Horizon LASWriter 6.2.68624.3100        :LAS Program name and version
SOURCE.    AT-33-F section 6.125" Run 1/1/1-Log[2]/Down:Run&Pass Information
CREA  .    07/28/2016                              :LAS Creation date {MM/DD/YYYY}
#--------------------------------------------------
~WELL INFORMATION 
#MNEM           .UNIT                      DATA            :DESCRIPTION
#----            ------          --------------            -----------------------------
STRT            .m                   1518.36120            :START DEPTH
STOP            .m                   3242.61480            :STOP DEPTH
STEP            .m                       0.1524            :STEP
NULL            .                       -999.25            :NULL VALUE
COMP            .                         PTTEP            :COMPANY
WELL            .                       AT-33-F            :WELL NAME
FLD             .                ARTHIT / Block: 15A       :FIELD NAME
RIGN            .                          T-17            :Rig Name
RIGTYP          .                Tender Assisted           :Rig Type
SON             .                    DGEY-00011            :Service Order Number
SRVC            .                  Schlumberger            :SERVICE COMPANY
DATE            .                    07/28/2016            :LOG DATE(Composite Date for Composite LAP) (MM/DD/YYYY)
CLAB            .                     Rig Name:            :County Label
CNTY            .                          T-17            :COUNTY
SLAB            .                      Country:            :State/Province Label
STAT            .                      Thailand            :STATE or PROVINCE
PROV            .                      Thailand            :STATE or PROVINCE
CTRY            .                      Thailand            :COUNTRY
CONT_REGION     .                          Asia            :Continent Region
SECT            .                                          :Section
TOWN            .                                          :Township
RANG            .                                          :Range
API             .                                          :API NUMBER
UWI             .                                          :UNIQUE WELL ID
LUL             .                      Thailand            :Logging Unit Location
LUN             .                          7003            :Logging Unit Number
LOC             .                Gulf of Thailand          :FIELD LOCATION
FL1             .                X: 890 685.860 mE (DATUM: INDIAN 1975):Field Location Line 1
FL2             .                Y: 893 515.640 mN (UTM ZONE 47N):Field Location Line 2
LATI            .deg             8° 4' 7.168" N            :LATITUDE
LONG            .deg             102° 32' 38.971" E        :LONGITUDE
PDAT            .                           MSL            :Local Permanent Datum
LMF             .                            DF            :Logging Measured From
APD             .m                     29.00000            :Elevation of Depth Reference (LMF) Above Permanent Datum
EPD             .m                      0.00000            :Elevation of Permanent Datum (PDAT) above Mean Sea Level
EKB             .m                     29.00000            :Elevation of Kelly Bushing Above Permanent Datum
EDF             .m                     29.00000            :Elevation of Drill Floor Above Permanent Datum
EGL             .m                    -77.08000            :Elevation of Ground Level Above Permanent Datum
ECF             .m                      -999.25            :Elevation of Casing Flange above Permanent Datum
#--------------------------------------------------
~CURVE INFORMATION
#MNEM           .UNIT                  API CODE            :DESCRIPTION
#----            ------          --------------            -----------------------------
DEPT            .m                                         :                                                        Depth Index
BS              .in                                        :(RT)    (Borehole)              (6in)                   Bit Size
TENS            .lbf                                       :        (WLWorkflow)            (6in)                   Cable Tension
HTEN            .lbf                                       :        (LEH-QT)                (6in)                   Head Tension
AT10            .ohm.m                                     :        (QAIT-A)                (3in)                   Array Induction Two Foot Resistivity A10
AT20            .ohm.m                                     :        (QAIT-A)                (3in)                   Array Induction Two Foot Resistivity A20
AT30            .ohm.m                                     :        (QAIT-A)                (3in)                   Array Induction Two Foot Resistivity A30
AT60            .ohm.m                                     :        (QAIT-A)                (3in)                   Array Induction Two Foot Resistivity A60
AT90            .ohm.m                                     :        (QAIT-A)                (3in)                   Array Induction Two Foot Resistivity A90
DRHOLS          .g/cm3                                     :        (QLDT-B)                (6in)                   Density Correction Long Spacing
PEF             .                                          :        (QLDT-B)                (6in)                   Photoelectric Factor
RHOB            .g/cm3                                     :        (QLDT-B)                (6in)                   Bulk Density
CALI            .in                                        :        (QLDT-B)                (6in)                   Caliper
TNRA            .                                          :        (QCNT)                  (6in)                   Thermal Neutron Ratio
CFTC            .1/s                                       :        (QCNT)                  (6in)                   Corrected Far Thermal Count Rate
CNTC            .1/s                                       :        (QCNT)                  (6in)                   Corrected Near Thermal Count Rate
NPOR            .m3/m3                                     :        (QCNT)                  (6in)                   Enhanced Thermal Neutron Porosity in Selected Lithology
GR              .gAPI                                      :        (QTGC-B)                (6in)                   Gamma Ray
#-------------------------------------------------------------
#            DEPT           BS         TENS         HTEN         AT10         AT20         AT30         AT60         AT90       DRHOLS          PEF         RHOB         CALI         TNRA         CFTC         CNTC         NPOR           GR 
#                   (Borehole)  (WLWorkflo)     (LEH-QT)     (QAIT-A)     (QAIT-A)     (QAIT-A)     (QAIT-A)     (QAIT-A)     (QLDT-B)     (QLDT-B)     (QLDT-B)     (QLDT-B)       (QCNT)       (QCNT)       (QCNT)       (QCNT)     (QTGC-B) 
#                         (RT)                                                                                                                                                                                                                 
#                        (6in)        (6in)        (6in)        (3in)        (3in)        (3in)        (3in)        (3in)        (6in)        (6in)        (6in)        (6in)        (6in)        (6in)        (6in)        (6in)        (6in) 
~ASCII
# ...
       2549.49960      6.12500   2277.66754   1095.19970      1.88643      1.87118      1.83571      1.82092      1.82325     -0.04427      6.77043      2.62578      6.21448      3.81419   1169.58700   4951.78400      0.23722    180.66280
       2549.65200      6.12500   2298.50059   1105.84463      1.91951      1.89882      1.87531      1.86977      1.87888     -0.02920      7.18995      2.65646      6.21448      3.77159   1232.92200   4772.30800      0.24603    182.99390
       2549.80440      6.12500   2306.49929   1110.05823      1.94836      1.90390      1.87649      1.88017      1.89225     -0.04342      7.38389      2.64287      6.22895      3.78733   1270.92700   5233.11300      0.21614    181.09740
       2549.95680      6.12500   2299.75053   1113.82827      2.08217      2.06633      2.03847      2.05641      2.08565     -0.06870      6.84377      2.61030      6.22895      3.80346   1220.25500   5228.56300      0.21223    175.28540
       2550.10920      6.12500   2303.66670   1106.73173      2.53089      2.51003      2.48106      2.52551      2.56249     -0.03563      6.11759      2.65135      6.22895      3.70459   1325.81600   5201.17500      0.24288    171.01840
       2550.26160      6.12500   2307.49969   1101.40915      3.20646      3.22622      3.17340      3.19171      3.24786     -0.04690      6.49549      2.58848      6.21448      3.69190   1346.92500   5114.50300      0.25565    168.59180
       2550.41400      6.12500   2307.00061   1106.14026      3.91857      3.97295      3.94124      4.01309      4.08353     -0.05707      6.73962      2.54045      6.21448      3.62407   1452.48400   6163.85100      0.18725    166.16290
       2550.56640      6.12500   2303.25080   1108.50592      4.12268      4.11542      4.10846      4.08222      4.17013     -0.06119      7.13520      2.50863      6.21448      3.43638   1710.05000   6332.66600      0.16679    165.72600
       2550.71880      6.12500   2297.99926   1109.68864      4.23218      4.21544      4.18370      4.18111      4.29625     -0.07734      5.67543      2.50228      6.22895      3.13665   1904.27400   6072.61700      0.18063    162.61130
       2550.87120      6.12500   2294.50124   1109.39279      4.35627      4.34885      4.29262      4.32189      4.42550     -0.09157      5.70569      2.51425      6.22895      2.97195   1929.61200   6314.41000      0.16304    158.09020
       2551.02360      6.12500   2297.99926   1102.73980      4.48980      4.50249      4.44385      4.52571      4.55285     -0.08863      5.47255      2.55911      6.22895      2.93930   2085.83400   6610.98600      0.15230    150.76910
       2551.17600      6.12500   2284.49949   1096.08658      4.60205      4.62948      4.59385      4.69091      4.64406     -0.09873      5.63431      2.53545      6.22895      2.89934   2216.73200   6834.52900      0.14708    143.98620
       2551.32840      6.12500   2284.49949   1100.52206      4.88810      4.92159      4.88125      5.03460      4.88418     -0.11579      5.24216      2.51044      6.22895      2.85108   2309.61700   7258.85300      0.12832    139.48430
       2551.48080      6.12500   2291.33368   1101.70478      5.33542      5.50198      5.42898      5.61088      5.35383     -0.10574      5.05593      2.50697      6.22895      2.80955   2415.17700   7277.08400      0.11859    133.61130
       2551.63320      6.12500   2285.74943   1102.07436      5.70529      6.13221      6.03166      6.26468      5.80617     -0.09686      4.83465      2.52016      6.22895      2.83572   2356.07000   6947.07600      0.12731    131.99100
       2551.78560      6.12500   2283.00001   1105.62297      5.85676      6.03403      6.16324      6.37696      5.83615     -0.09173      4.67498      2.50846      6.22895      2.97903   1959.16400   6323.55100      0.15324    129.39000
       2551.93800      6.12500   2287.50069   1110.72366      4.91626      4.91321      5.07720      5.16693      4.76885     -0.08229      4.79333      2.52338      6.22895      3.22456   1663.60400   5785.16900      0.20538    129.49670
       2552.09040      6.12500   2292.66680   1103.84878      4.20251      3.99123      4.09885      4.25725      4.13659     -0.06276      5.81925      2.55185      6.22895      3.28119   1452.48400   5438.43600      0.22764    133.81630
       2552.24280      6.12500   2293.24905   1101.85270      3.59760      3.58716      3.61918      3.75227      3.65122     -0.03881      5.78625      2.59877      6.22895      3.16871   1802.94200   6150.16200      0.16990    141.41350
       2552.39520      6.12500   2309.75003   1104.73565      3.72727      3.67267      3.71759      3.92679      3.97026     -0.03847      6.43427      2.60129      6.21448      3.03389   2128.05700   6624.67100      0.12585    147.78660
       2552.54760      6.12500   2302.33358   1100.52206      4.10123      4.06969      4.17947      4.42513      4.49959     -0.04716      5.34967      2.59392      6.22895      2.89377   2014.05900   6661.15600      0.13079    150.67580
       2552.70000      6.12500   2295.24985   1099.33934      4.51826      4.51285      4.71821      5.04207      5.15809     -0.04187      5.03815      2.59470      6.22895      2.96490   2004.20400   5926.62000      0.17546    149.76310
       2552.85240      6.12500   2290.25010   1105.62275      4.43310      4.46266      4.54460      4.78144      4.89383     -0.05341      4.53599      2.58653      6.22895      2.96760   1895.82900   6338.74900      0.16332    148.05340
       2553.00480      6.12500   2308.99917   1110.94532      4.24452      4.32104      4.31748      4.51231      4.61984     -0.06579      5.58480      2.56081      6.24342      3.15604   1900.05600   6300.72400      0.16933    142.77160
       2553.15720      6.12500   2301.66590   1102.29625      4.87526      4.97241      5.01114      5.38049      5.59127     -0.05482      5.86922      2.55557      6.22895      3.12182   1874.71700   6688.54600      0.16716    137.38120
       2553.30960      6.12500   2289.49924   1102.29625      6.53398      6.71516      6.86615      7.46325      7.88454     -0.03805      5.81803      2.53772      6.21448      3.12797   2026.72700   6551.65700      0.18031    128.85170
       2553.46200      6.12500   2296.74933   1114.93703      8.78004      9.44835      9.51004     10.31198     11.08851     -0.04550      4.64894      2.46316      6.22895      3.02057   2128.05700   7099.16900      0.15330    116.36410
       2553.61440      6.12500   2302.99902   1113.38473     11.71555     12.94386     13.06656     14.29551     15.40994     -0.04385      4.21360      2.42893      6.22895      2.97728   2292.73500   7382.02100      0.13483    103.18990
       2553.76680      6.12500   2290.49964   1117.37666     14.96296     15.76209     16.51660     18.05690     18.07069     -0.03297      4.06356      2.42202      6.22895      2.95478   2322.27900   7181.29100      0.15209     90.03389
       2553.91920      6.12500   2303.50034   1124.02988     16.01753     16.77074     16.84518     18.03426     18.82826     -0.03640      4.75702      2.40847      6.24342      3.01313   2128.06100   6944.03700      0.17032     78.74397
       2554.07160      6.12500   2306.24975   1120.62919     17.30883     17.68774     17.58284     18.71442     20.15778     -0.04266      5.35400      2.39853      6.22895      3.04047   2111.13800   7196.49100      0.16118     69.33820
       2554.22400      6.12500   2307.33333   1116.93311     18.81970     20.11997     19.85664     20.17662     22.34863     -0.04707      4.99857      2.39232      6.22895      3.06969   2258.98500   7185.72900      0.15622     64.58519
       2554.37640      6.12500   2316.75058   1115.60247     21.39473     24.04119     22.25264     22.00528     23.78971     -0.04392      4.46787      2.38364      6.22895      3.04584   2161.84100   7258.95800      0.15166     66.01190
       2554.52880      6.12500   2319.25045   1114.49371     22.98797     22.81250     22.76831     20.27607     26.41296     -0.04860      3.95382      2.37428      6.22895      3.11871   2081.61100   6934.91800      0.17025     70.45589
