~VERSION INFORMATION 
VERS  .    2.0                                     :CWLS Log ASCII Standard - VERSION 2.0
WRAP  .    NO                                      :One Line per Depth step
PROD  .    Schlumberger Technology Corp.           :LAS Producer
PROG  .    Horizon LASWriter 6.2.68624.3100        :LAS Program name and version
SOURCE.    AT-33-F section 6.125" Run 1/1/1-Log[2]/Down:Run&Pass Information
CREA  .    07/28/2016                              :LAS Creation date {MM/DD/YYYY}
#--------------------------------------------------
~WELL INFORMATION 
#MNEM           .UNIT                      DATA            :DESCRIPTION
#----            ------          --------------            -----------------------------
STRT            .m                   1518.36120            :START DEPTH
STOP            .m                   3242.61480            :STOP DEPTH
STEP            .m                       0.1524            :STEP
NULL            .                       -999.25            :NULL VALUE
COMP            .                         PTTEP            :COMPANY
WELL            .                       AT-33-F            :WELL NAME
FLD             .                ARTHIT / Block: 15A       :FIELD NAME
RIGN            .                          T-17            :Rig Name
RIGTYP          .                Tender Assisted           :Rig Type
SON             .                    DGEY-00011            :Service Order Number
SRVC            .                  Schlumberger            :SERVICE COMPANY
DATE            .                    07/28/2016            :LOG DATE(Composite Date for Composite LAP) (MM/DD/YYYY)
CLAB            .                     Rig Name:            :County Label
CNTY            .                          T-17            :COUNTY
SLAB            .                      Country:            :State/Province Label
STAT            .                      Thailand            :STATE or PROVINCE
PROV            .                      Thailand            :STATE or PROVINCE
CTRY            .                      Thailand            :COUNTRY
CONT_REGION     .                          Asia            :Continent Region
SECT            .                                          :Section
TOWN            .                                          :Township
RANG            .                                          :Range
API             .                                          :API NUMBER
UWI             .                                          :UNIQUE WELL ID
LUL             .                      Thailand            :Logging Unit Location
LUN             .                          7003            :Logging Unit Number
LOC             .                Gulf of Thailand          :FIELD LOCATION
FL1             .                X: 890 685.860 mE (DATUM: INDIAN 1975):Field Location Line 1
FL2             .                Y: 893 515.640 mN (UTM ZONE 47N):Field Location Line 2
LATI            .deg             8° 4' 7.168" N            :LATITUDE
LONG            .deg             102° 32' 38.971" E        :LONGITUDE
PDAT            .                           MSL            :Local Permanent Datum
LMF             .                            DF            :Logging Measured From
APD             .m                     29.00000            :Elevation of Depth Reference (LMF) Above Permanent Datum
EPD             .m                      0.00000            :Elevation of Permanent Datum (PDAT) above Mean Sea Level
EKB             .m                     29.00000            :Elevation of Kelly Bushing Above Permanent Datum
EDF             .m                     29.00000            :Elevation of Drill Floor Above Permanent Datum
EGL             .m                    -77.08000            :Elevation of Ground Level Above Permanent Datum
ECF             .m                      -999.25            :Elevation of Casing Flange above Permanent Datum
#--------------------------------------------------
~CURVE INFORMATION
#MNEM           .UNIT                  API CODE            :DESCRIPTION
#----            ------          --------------            -----------------------------
DEPT            .m                                         :                                                        Depth Index
BS              .in                                        :(RT)    (Borehole)              (6in)                   Bit Size
TENS            .lbf                                       :        (WLWorkflow)            (6in)                   Cable Tension
HTEN            .lbf                                       :        (LEH-QT)                (6in)                   Head Tension
AT10            .ohm.m                                     :        (QAIT-A)                (3in)                   Array Induction Two Foot Resistivity A10
AT20            .ohm.m                                     :        (QAIT-A)                (3in)                   Array Induction Two Foot Resistivity A20
AT30            .ohm.m                                     :        (QAIT-A)                (3in)                   Array Induction Two Foot Resistivity A30
AT60            .ohm.m                                     :        (QAIT-A)                (3in)                   Array Induction Two Foot Resistivity A60
AT90            .ohm.m                                     :        (QAIT-A)                (3in)                   Array Induction Two Foot Resistivity A90
DRHOLS          .g/cm3                                     :        (QLDT-B)                (6in)                   Density Correction Long Spacing
PEF             .                                          :        (QLDT-B)                (6in)                   Photoelectric Factor
RHOB            .g/cm3                                     :        (QLDT-B)                (6in)                   Bulk Density
CALI            .in                                        :        (QLDT-B)                (6in)                   Caliper
TNRA            .                                          :        (QCNT)                  (6in)                   Thermal Neutron Ratio
CFTC            .1/s                                       :        (QCNT)                  (6in)                   Corrected Far Thermal Count Rate
CNTC            .1/s                                       :        (QCNT)                  (6in)                   Corrected Near Thermal Count Rate
NPOR            .m3/m3                                     :        (QCNT)                  (6in)                   Enhanced Thermal Neutron Porosity in Selected Lithology
GR              .gAPI                                      :        (QTGC-B)                (6in)                   Gamma Ray
#-------------------------------------------------------------
#            DEPT           BS         TENS         HTEN         AT10         AT20         AT30         AT60         AT90       DRHOLS          PEF         RHOB         CALI         TNRA         CFTC         CNTC         NPOR           GR 
#                   (Borehole)  (WLWorkflo)     (LEH-QT)     (QAIT-A)     (QAIT-A)     (QAIT-A)     (QAIT-A)     (QAIT-A)     (QLDT-B)     (QLDT-B)     (QLDT-B)     (QLDT-B)       (QCNT)       (QCNT)       (QCNT)       (QCNT)     (QTGC-B) 
#                         (RT)                                                                                                                                                                                                                 
#                        (6in)        (6in)        (6in)        (3in)        (3in)        (3in)        (3in)        (3in)        (6in)        (6in)        (6in)        (6in)        (6in)        (6in)        (6in)        (6in)        (6in) 
~ASCII
# ...
       3000.29880      6.12500   2613.25109   1189.23009      6.18989      6.21240      5.99691      6.14115      5.98987     -0.04636      5.99414      2.68655      6.23530      2.85201   2681.18300   7518.89900      0.14008    160.66590
       3000.45120      6.12500   2613.66699   1180.95060      6.90971      6.98714      6.95892      7.16633      6.92988     -0.02580      5.78721      2.71853      6.24979      2.75337   2651.62800   8262.57100      0.10868    154.43220
       3000.60360      6.12500   2615.24964   1174.14968      8.33744      8.70952      8.86451      9.35748      8.98574     -0.02192      6.05137      2.71423      6.24979      2.93704   2520.74000   7567.56600      0.14582    147.01630
       3000.75600      6.12500   2620.49893   1181.46811      8.04992      7.99785      8.20268      8.36813      7.78956     -0.03466      7.43491      2.68105      6.23530      2.89041   2081.58600   7076.35500      0.18046    139.75390
       3000.90840      6.12500   2614.66739   1193.00014      7.04538      6.80093      6.75575      6.89812      6.88577     -0.05250      6.15732      2.64524      6.24979      2.88992   2275.84500   6747.73600      0.19107    132.97810
       3001.06080      6.12500   2600.74947   1191.89116      6.32739      6.23615      6.04027      6.01474      6.12467     -0.04610      3.99394      2.63764      6.23530      2.70989   2516.51200   7550.85000      0.13310    130.06180
       3001.21320      6.12500   2590.99950   1186.79047      7.28906      7.04071      6.81857      6.86744      7.36124     -0.05241      7.52503      2.62872      6.23530      2.60672   2862.75100   8061.82300      0.10271    131.80420
       3001.36560      6.12500   2593.75117   1178.36328      9.11746      8.73431      8.51506      8.37702      8.32277     -0.05545      8.29449      2.61298      6.23530      2.44804   2964.04400   7797.22200      0.12388    135.74550
       3001.51800      6.12500   2594.99886   1170.15775     10.19462      9.52485      9.31913      8.86544      9.13892     -0.04583      7.72730      2.62179      6.23530      2.36797   3062.60300   7614.59200      0.13837    140.17700
       3001.67040      6.12500   2591.25129   1179.91558     10.09257      9.39858      9.04144      8.81531      8.56603     -0.02679      7.37387      2.64186      6.23530      2.34561   3483.42700   8905.88100      0.09145    138.55640
       3001.82280      6.12500   2605.74922   1188.93447     10.67264      9.82483      9.27397      9.17623      8.35616     -0.02586      7.32090      2.64839      6.24979      2.32577   3711.44200   9494.42900      0.06860    135.50170
       3001.97520      6.12500   2601.99941   1196.77018     12.85582     11.77582     11.15902     10.88188      9.37107     -0.02542      6.53000      2.65448      6.23530      2.33415   3690.26300   8937.83300      0.08336    132.26520
       3002.12760      6.12500   2599.66589   1191.66949     16.05352     14.69283     14.39303     13.54174     11.06091     -0.01907      5.24902      2.67849      6.23530      2.40083   3183.64900   8225.95200      0.09936    136.38590
       3002.28000      6.12500   2594.25024   1184.79461     17.50410     15.69578     15.27795     13.97099     11.19340     -0.02229      4.92319      2.69529      6.24979      2.65884   2567.17900   7121.98000      0.14373    147.55330
       3002.43240      6.12500   2611.99891   1182.57687     12.71672     11.20013     10.70796     10.01348      8.77625     -0.03481      5.12959      2.68403      6.23530      2.96234   1946.46400   6341.78400      0.18494    162.33180
       3002.58480      6.12500   2619.99986   1186.12526      8.16457      7.41185      7.27506      6.90301      6.38348     -0.05327      5.88468      2.64847      6.23530      3.25632   1779.01300   6346.26300      0.19413    177.11290
       3002.73720      6.12500   2620.75072   1179.02871      5.99201      5.54449      5.50783      5.26263      5.00685     -0.05696      6.14729      2.63662      6.23530      3.40697   1604.49200   5979.83600      0.20390    184.97060
       3002.88960      6.12500   2621.49933   1179.25037      4.84142      4.56605      4.56366      4.38556      4.27168     -0.04914      5.93879      2.64130      6.23530      3.36163   1600.26500   5995.05500      0.20363    187.53850
       3003.04200      6.12500   2615.00011   1193.00014      4.17250      3.90962      3.86554      3.72982      3.69944     -0.03827      6.76467      2.65624      6.22081      3.37904   1659.38100   5675.67000      0.21159    183.76360
       3003.19440      6.12500   2614.66739   1192.77825      3.83552      3.62420      3.54820      3.43043      3.43575     -0.04569      7.52684      2.64910      6.22081      3.38674   1583.38000   5990.49300      0.18854    178.37880
       3003.34680      6.12500   2596.99965   1176.81097      3.95549      3.70444      3.66723      3.52324      3.50968     -0.04889      7.90729      2.64500      6.20632      3.42055   1559.42100   5880.97100      0.20270    170.88210
       3003.49920      6.12500   2608.24909   1178.80683      4.43064      4.11860      4.04233      3.87801      3.80188     -0.03291      7.62318      2.66581      6.22081      3.44509   1566.49000   5529.56600      0.22745    164.66510
       3003.65160      6.12500   2616.25004   1186.34692      4.67956      4.41632      4.30289      4.06053      3.97624     -0.03371      7.87371      2.66653      6.22081      3.44657   1579.13100   6099.99300      0.19068    162.24710
       3003.80400      6.12500   2612.99931   1175.03678      4.64548      4.37840      4.29389      4.08214      3.86779     -0.03793      8.16596      2.65020      6.23530      3.45501   1570.70900   5931.08000      0.19023    162.75410
       3003.95640      6.12500   2598.75092   1164.83540      4.47682      4.28610      4.21402      4.08787      3.74407     -0.02614      7.58949      2.65545      6.23530      3.39099   1604.49200   5707.60800      0.20689    163.40710
       3004.10880      6.12500   2617.00091   1170.15798      4.28904      4.16539      4.12681      4.07237      3.69050     -0.00085      6.73724      2.68593      6.23530      3.36782   1532.70800   5602.68500      0.20555    163.93240
       3004.26120      6.12500   2621.75112   1177.47618      4.06399      4.03948      4.02655      3.95500      3.68877      0.00459      6.50597      2.69941      6.23530      3.67037   1520.01100   5625.48400      0.22452    163.33120
       3004.41360      6.12500   2606.00101   1174.37134      3.72857      3.78623      3.78981      3.75717      3.62656      0.00534      6.88305      2.70849      6.23530      3.81711   1241.37000   5632.99000      0.22873    161.63090
       3004.56600      6.12500   2590.25089   1177.91973      3.47335      3.46258      3.49011      3.47573      3.43436      0.00616      7.94427      2.69356      6.24979      3.86257   1359.59200   5616.37200      0.23163    163.33060
       3004.71840      6.12500   2598.75092   1183.31604      3.14481      3.08877      3.13295      3.11840      3.18310      0.00872      7.99385      2.67162      6.23530      3.73971   1376.46300   5296.98800      0.24247    164.14900
       3004.87080      6.12500   2587.33287   1182.35521      2.84319      2.76032      2.81246      2.82262      2.92549      0.01004      8.45864      2.63812      6.23530      3.57517   1249.81500   5173.71900      0.25813    164.47250
       3005.02320      6.12500   2591.24904   1172.59738      2.77047      2.64368      2.64963      2.66516      2.82682      0.00709      9.66978      2.61584      6.23530      3.50365   1486.26300   5347.18800      0.24620    162.57360
       3005.17560      6.12500   2599.24999   1179.91581      2.91118      2.82274      2.79865      2.85940      3.07213      0.01238      8.26725      2.62609      6.23530      3.16621   1764.94000   6382.84600      0.16823    156.84120
       3005.32800      6.12500   2597.75052   1180.58102      3.36664      3.28113      3.24744      3.33501      3.61655      0.01223      7.36440      2.64540      6.23530      3.16054   2263.17700   6893.85500      0.15713    155.70440
