~VERSION INFORMATION 
VERS  .    2.0                                     :CWLS Log ASCII Standard - VERSION 2.0
WRAP  .    NO                                      :One Line per Depth step
PROD  .    Schlumberger Technology Corp.           :LAS Producer
PROG  .    Horizon LASWriter 6.2.68624.3100        :LAS Program name and version
SOURCE.    AT-33-F section 6.125" Run 1/1/1-Log[2]/Down:Run&Pass Information
CREA  .    07/28/2016                              :LAS Creation date {MM/DD/YYYY}
#--------------------------------------------------
~WELL INFORMATION 
#MNEM           .UNIT                      DATA            :DESCRIPTION
#----            ------          --------------            -----------------------------
STRT            .m                   1518.36120            :START DEPTH
STOP            .m                   3242.61480            :STOP DEPTH
STEP            .m                       0.1524            :STEP
NULL            .                       -999.25            :NULL VALUE
COMP            .                         PTTEP            :COMPANY
WELL            .                       AT-33-F            :WELL NAME
FLD             .                ARTHIT / Block: 15A       :FIELD NAME
RIGN            .                          T-17            :Rig Name
RIGTYP          .                Tender Assisted           :Rig Type
SON             .                    DGEY-00011            :Service Order Number
SRVC            .                  Schlumberger            :SERVICE COMPANY
DATE            .                    07/28/2016            :LOG DATE(Composite Date for Composite LAP) (MM/DD/YYYY)
CLAB            .                     Rig Name:            :County Label
CNTY            .                          T-17            :COUNTY
SLAB            .                      Country:            :State/Province Label
STAT            .                      Thailand            :STATE or PROVINCE
PROV            .                      Thailand            :STATE or PROVINCE
CTRY            .                      Thailand            :COUNTRY
CONT_REGION     .                          Asia            :Continent Region
SECT            .                                          :Section
TOWN            .                                          :Township
RANG            .                                          :Range
API             .                                          :API NUMBER
UWI             .                                          :UNIQUE WELL ID
LUL             .                      Thailand            :Logging Unit Location
LUN             .                          7003            :Logging Unit Number
LOC             .                Gulf of Thailand          :FIELD LOCATION
FL1             .                X: 890 685.860 mE (DATUM: INDIAN 1975):Field Location Line 1
FL2             .                Y: 893 515.640 mN (UTM ZONE 47N):Field Location Line 2
LATI            .deg             8° 4' 7.168" N            :LATITUDE
LONG            .deg             102° 32' 38.971" E        :LONGITUDE
PDAT            .                           MSL            :Local Permanent Datum
LMF             .                            DF            :Logging Measured From
APD             .m                     29.00000            :Elevation of Depth Reference (LMF) Above Permanent Datum
EPD             .m                      0.00000            :Elevation of Permanent Datum (PDAT) above Mean Sea Level
EKB             .m                     29.00000            :Elevation of Kelly Bushing Above Permanent Datum
EDF             .m                     29.00000            :Elevation of Drill Floor Above Permanent Datum
EGL             .m                    -77.08000            :Elevation of Ground Level Above Permanent Datum
ECF             .m                      -999.25            :Elevation of Casing Flange above Permanent Datum
#--------------------------------------------------
~CURVE INFORMATION
#MNEM           .UNIT                  API CODE            :DESCRIPTION
#----            ------          --------------            -----------------------------
DEPT            .m                                         :                                                        Depth Index
BS              .in                                        :(RT)    (Borehole)              (6in)                   Bit Size
TENS            .lbf                                       :        (WLWorkflow)            (6in)                   Cable Tension
HTEN            .lbf                                       :        (LEH-QT)                (6in)                   Head Tension
AT10            .ohm.m                                     :        (QAIT-A)                (3in)                   Array Induction Two Foot Resistivity A10
AT20            .ohm.m                                     :        (QAIT-A)                (3in)                   Array Induction Two Foot Resistivity A20
AT30            .ohm.m                                     :        (QAIT-A)                (3in)                   Array Induction Two Foot Resistivity A30
AT60            .ohm.m                                     :        (QAIT-A)                (3in)                   Array Induction Two Foot Resistivity A60
AT90            .ohm.m                                     :        (QAIT-A)                (3in)                   Array Induction Two Foot Resistivity A90
DRHOLS          .g/cm3                                     :        (QLDT-B)                (6in)                   Density Correction Long Spacing
PEF             .                                          :        (QLDT-B)                (6in)                   Photoelectric Factor
RHOB            .g/cm3                                     :        (QLDT-B)                (6in)                   Bulk Density
CALI            .in                                        :        (QLDT-B)                (6in)                   Caliper
TNRA            .                                          :        (QCNT)                  (6in)                   Thermal Neutron Ratio
CFTC            .1/s                                       :        (QCNT)                  (6in)                   Corrected Far Thermal Count Rate
CNTC            .1/s                                       :        (QCNT)                  (6in)                   Corrected Near Thermal Count Rate
NPOR            .m3/m3                                     :        (QCNT)                  (6in)                   Enhanced Thermal Neutron Porosity in Selected Lithology
GR              .gAPI                                      :        (QTGC-B)                (6in)                   Gamma Ray
#-------------------------------------------------------------
#            DEPT           BS         TENS         HTEN         AT10         AT20         AT30         AT60         AT90       DRHOLS          PEF         RHOB         CALI         TNRA         CFTC         CNTC         NPOR           GR 
#                   (Borehole)  (WLWorkflo)     (LEH-QT)     (QAIT-A)     (QAIT-A)     (QAIT-A)     (QAIT-A)     (QAIT-A)     (QLDT-B)     (QLDT-B)     (QLDT-B)     (QLDT-B)       (QCNT)       (QCNT)       (QCNT)       (QCNT)     (QTGC-B) 
#                         (RT)                                                                                                                                                                                                                 
#                        (6in)        (6in)        (6in)        (3in)        (3in)        (3in)        (3in)        (3in)        (6in)        (6in)        (6in)        (6in)        (6in)        (6in)        (6in)        (6in)        (6in) 
~ASCII
# ...
       2772.30840      6.12500   2432.66657   1126.46928      7.90491      7.61020      7.84282      8.31131      8.91814     -0.01456      6.29419      2.64906      6.23530      2.21130   4243.45800   9266.30700      0.09300    119.64300
       2772.46080      6.12500   2447.24992   1124.02988     10.97021     10.62788     10.87964     11.40186     12.22416     -0.02012      6.74936      2.63263      6.23530      1.96513   4631.83400  10156.00000      0.06629    110.04790
       2772.61320      6.12500   2453.49961   1126.46906     14.35758     14.17336     14.38791     15.18122     16.50794     -0.02246      6.81419      2.60434      6.22081      1.90155   5337.03300  10630.32000      0.05485     96.82647
       2772.76560      6.12500   2444.99958   1131.79163     20.01601     20.09039     20.86589     22.06706     23.42732     -0.03653      6.61274      2.56500      6.22081      1.85786   5645.27700  11164.28000      0.04769     82.22149
       2772.91800      6.12500   2445.75045   1139.77550     28.19462     28.95894     29.81321     31.14594     32.96305     -0.02346      5.76167      2.58464      6.22081      1.88141   5349.70000  10972.68000      0.05302     70.24987
       2773.07040      6.12500   2450.33430   1148.42435     34.56797     36.01482     35.66231     37.52779     40.97934     -0.01754      6.18584      2.61290      6.22081      1.97927   5201.93100  10758.22000      0.06127     63.97165
       2773.22280      6.12500   2457.49896   1141.54946     39.58615     43.23786     42.43346     42.42439     47.16217     -0.03035      5.62737      2.61805      6.23530      2.04888   4437.67600  10183.38000      0.07327     63.09785
       2773.37520      6.12500   2462.24917   1141.54946     37.80654     40.80072     39.20072     37.10779     42.01606     -0.04203      5.07255      2.59602      6.22081      2.14811   4132.26400   9407.74300      0.09282     65.89449
       2773.52760      6.12500   2476.66617   1139.55361     28.09966     28.90113     27.50338     26.02825     29.61962     -0.04337      4.23141      2.58426      6.23530      2.14950   3859.17100   9222.21100      0.09484     73.27257
       2773.68000      6.12500   2480.00009   1138.44485     22.90875     21.92976     20.60123     19.44378     21.57516     -0.06661      4.72355      2.53836      6.22081      2.16237   3829.65900   8805.39200      0.10635     81.19030
       2773.83240      6.12500   2480.49916   1131.27412     21.58591     20.31413     18.85877     17.60203     19.21816     -0.06598      5.87731      2.53983      6.23530      2.15290   4061.89800   9416.86500      0.08730     90.02888
       2773.98480      6.12500   2469.00019   1137.77964     23.59449     21.92846     19.63084     17.70027     19.73341     -0.06765      7.05791      2.53411      6.22081      2.20463   4264.55900  10060.19000      0.06638     95.80719
       2774.13720      6.12500   2473.24908   1141.77135     26.98111     24.06285     21.81577     19.52081     20.23783     -0.05504      7.22055      2.53803      6.22081      2.15645   3998.56200   9863.98500      0.06398     97.33985
       2774.28960      6.12500   2457.33260   1132.67873     30.03809     25.15823     25.02999     22.58546     21.21523     -0.07222      6.42361      2.51444      6.22081      2.16712   4121.00000   8910.45800      0.09367     96.22565
       2774.44200      6.12500   2433.75014   1124.69486     27.06396     22.99043     23.19493     20.59833     17.59453     -0.06046      6.84593      2.53943      6.22081      2.30368   3394.76700   8125.69900      0.11629     95.19189
       2774.59440      6.12500   2440.75070   1119.15062     23.51067     19.39967     18.60834     15.96884     14.90755     -0.05451      7.06465      2.57735      6.22081      2.53373   2938.74600   8550.02600      0.09955     97.55536
       2774.74680      6.12500   2444.33415   1111.38887     20.30867     16.83628     16.56919     14.53533     13.91538     -0.07246      7.55708      2.56805      6.23530      2.76627   2786.70100   8102.88500      0.11033    101.03470
       2774.89920      6.12500   2445.75045   1096.97367     18.73417     17.05554     16.79027     14.10460     13.33783     -0.10174      7.56344      2.54931      6.22081      2.94002   2174.50800   6843.55400      0.16685    104.88560
       2775.05160      6.12500   2438.74990   1100.30039     16.13400     13.23070     13.70678     11.41732     11.17381     -0.08222      7.30317      2.57181      6.22081      3.21038   1739.60300   6040.67900      0.21132    111.15390
       2775.20400      6.12500   2428.24907   1107.17505      9.23131      8.18374      8.22531      7.14236      6.97479     -0.06614      7.54605      2.61267      6.22081      3.33823   1581.97000   5985.91500      0.19839    119.85150
       2775.35640      6.12500   2435.75094   1112.94118      6.48938      5.80468      5.74039      5.34944      5.18656     -0.05624      7.36580      2.62965      6.22081      3.44634   1583.37900   5639.17600      0.21012    130.74970
       2775.50880      6.12500   2409.33365   1112.94118      5.24580      4.83755      4.77354      4.54824      4.44924     -0.03065      6.71305      2.66978      6.22081      3.40012   1452.48300   5552.49700      0.20666    141.67380
       2775.66120      6.12500   2426.74959   1115.15892      4.74938      4.42751      4.34568      4.10362      4.06634     -0.01375      7.10442      2.69517      6.22081      3.54189   1558.02200   5661.98200      0.19565    148.00440
       2775.81360      6.12500   2431.00073   1113.60639      4.49339      4.19105      4.09504      3.89992      3.78951     -0.03847      7.12282      2.65420      6.22081      3.75653   1393.37100   5602.60200      0.21380    151.56540
       2775.96600      6.12500   2438.66672   1111.38887      4.16570      3.91096      3.88138      3.73141      3.60570     -0.03059      5.98658      2.65616      6.22081      3.90372   1140.03100   5150.99000      0.25485    153.24790
       2776.11840      6.12500   2450.24887   1118.92896      3.51544      3.34971      3.33837      3.21998      3.11408     -0.01814      7.03655      2.64711      6.22081      3.93319   1275.14900   5242.23800      0.24557    157.59910
       2776.27080      6.12500   2453.74915   1127.13449      2.94922      2.82686      2.78572      2.69202      2.61777     -0.00828      7.02457      2.64314      6.22081      3.83456   1241.36600   5109.93900      0.23745    161.76030
       2776.42320      6.12500   2454.00093   1127.13449      2.61885      2.54816      2.52436      2.44947      2.38490     -0.01337      7.65962      2.61340      6.22081      3.87087   1182.25700   4963.93100      0.24987    164.16080
       2776.57560      6.12500   2453.33325   1128.46513      2.66486      2.59205      2.57046      2.50502      2.44110      0.00007      8.04420      2.63308      6.22081      3.88130   1220.25500   5160.12800      0.22839    165.46470
       2776.72800      6.12500   2453.25007   1128.68680      2.69099      2.61632      2.56052      2.50709      2.43209     -0.01309      8.13259      2.62201      6.22081      3.84677   1220.25900   5064.30200      0.23244    164.41970
       2776.88040      6.12500   2468.75065   1133.93541      2.57135      2.54500      2.52351      2.46386      2.42769     -0.01040      8.37492      2.63038      6.23530      3.86762   1182.25500   4831.63000      0.26742    162.03520
       2777.03280      6.12500   2475.49941   1135.11813      2.42503      2.39637      2.33865      2.30640      2.28256      0.00811      7.96167      2.64890      6.23530      3.75157   1173.80900   5043.01500      0.26123    159.92120
       2777.18520      6.12500   2453.33325   1130.01744      2.24764      2.20318      2.19229      2.18065      2.17743      0.01606      7.78668      2.64453      6.23530      3.90412   1456.68800   5497.73400      0.25471    159.25940
       2777.33760      6.12500   2468.24933   1124.91675      2.20084      2.20394      2.15821      2.13004      2.12616      0.01952      7.75884      2.65932      6.23530      3.71016   1379.32400   6318.89200      0.19951    161.23930
