~VERSION INFORMATION 
VERS  .    2.0                                     :CWLS Log ASCII Standard - VERSION 2.0
WRAP  .    NO                                      :One Line per Depth step
PROD  .    Schlumberger Technology Corp.           :LAS Producer
PROG  .    Horizon LASWriter 6.2.68624.3100        :LAS Program name and version
SOURCE.    AT-33-F section 6.125" Run 1/1/1-Log[3]/Up:Run&Pass Information
CREA  .    07/28/2016                              :LAS Creation date {MM/DD/YYYY}
#--------------------------------------------------
~WELL INFORMATION 
#MNEM           .UNIT                      DATA            :DESCRIPTION
#----            ------          --------------            -----------------------------
STRT            .m                   3247.79640            :START DEPTH
STOP            .m                   1513.78920            :STOP DEPTH
STEP            .m                      -0.1524            :STEP
NULL            .                       -999.25            :NULL VALUE
COMP            .                         PTTEP            :COMPANY
WELL            .                       AT-33-F            :WELL NAME
FLD             .                ARTHIT / Block: 15A       :FIELD NAME
RIGN            .                          T-17            :Rig Name
RIGTYP          .                Tender Assisted           :Rig Type
SON             .                    DGEY-00011            :Service Order Number
SRVC            .                  Schlumberger            :SERVICE COMPANY
DATE            .                    07/28/2016            :LOG DATE(Composite Date for Composite LAP) (MM/DD/YYYY)
CLAB            .                     Rig Name:            :County Label
CNTY            .                          T-17            :COUNTY
SLAB            .                      Country:            :State/Province Label
STAT            .                      Thailand            :STATE or PROVINCE
PROV            .                      Thailand            :STATE or PROVINCE
CTRY            .                      Thailand            :COUNTRY
CONT_REGION     .                          Asia            :Continent Region
SECT            .                                          :Section
TOWN            .                                          :Township
RANG            .                                          :Range
API             .                                          :API NUMBER
UWI             .                                          :UNIQUE WELL ID
LUL             .                      Thailand            :Logging Unit Location
LUN             .                          7003            :Logging Unit Number
LOC             .                Gulf of Thailand          :FIELD LOCATION
FL1             .                X: 890 685.860 mE (DATUM: INDIAN 1975):Field Location Line 1
FL2             .                Y: 893 515.640 mN (UTM ZONE 47N):Field Location Line 2
LATI            .deg             8° 4' 7.168" N            :LATITUDE
LONG            .deg             102° 32' 38.971" E        :LONGITUDE
PDAT            .                           MSL            :Local Permanent Datum
LMF             .                            DF            :Logging Measured From
APD             .m                     29.00000            :Elevation of Depth Reference (LMF) Above Permanent Datum
EPD             .m                      0.00000            :Elevation of Permanent Datum (PDAT) above Mean Sea Level
EKB             .m                     29.00000            :Elevation of Kelly Bushing Above Permanent Datum
EDF             .m                     29.00000            :Elevation of Drill Floor Above Permanent Datum
EGL             .m                    -77.08000            :Elevation of Ground Level Above Permanent Datum
ECF             .m                      -999.25            :Elevation of Casing Flange above Permanent Datum
#--------------------------------------------------
~CURVE INFORMATION
#MNEM           .UNIT                  API CODE            :DESCRIPTION
#----            ------          --------------            -----------------------------
DEPT            .m                                         :                                                        Depth Index
BS              .in                                        :(RT)    (Borehole)              (6in)                   Bit Size
TENS            .lbf                                       :        (WLWorkflow)            (6in)                   Cable Tension
HTEN            .lbf                                       :        (LEH-QT)                (6in)                   Head Tension
AT10            .ohm.m                                     :        (QAIT-A)                (3in)                   Array Induction Two Foot Resistivity A10
AT20            .ohm.m                                     :        (QAIT-A)                (3in)                   Array Induction Two Foot Resistivity A20
AT30            .ohm.m                                     :        (QAIT-A)                (3in)                   Array Induction Two Foot Resistivity A30
AT60            .ohm.m                                     :        (QAIT-A)                (3in)                   Array Induction Two Foot Resistivity A60
AT90            .ohm.m                                     :        (QAIT-A)                (3in)                   Array Induction Two Foot Resistivity A90
DRHOLS          .g/cm3                                     :        (QLDT-B)                (6in)                   Density Correction Long Spacing
PEF             .                                          :        (QLDT-B)                (6in)                   Photoelectric Factor
RHOB            .g/cm3                                     :        (QLDT-B)                (6in)                   Bulk Density
CALI            .in                                        :        (QLDT-B)                (6in)                   Caliper
TNRA            .                                          :        (QCNT)                  (6in)                   Thermal Neutron Ratio
CFTC            .1/s                                       :        (QCNT)                  (6in)                   Corrected Far Thermal Count Rate
CNTC            .1/s                                       :        (QCNT)                  (6in)                   Corrected Near Thermal Count Rate
NPOR            .m3/m3                                     :        (QCNT)                  (6in)                   Enhanced Thermal Neutron Porosity in Selected Lithology
GR              .gAPI                                      :        (QTGC-B)                (6in)                   Gamma Ray
#-------------------------------------------------------------
#            DEPT           BS         TENS         HTEN         AT10         AT20         AT30         AT60         AT90       DRHOLS          PEF         RHOB         CALI         TNRA         CFTC         CNTC         NPOR           GR 
#                   (Borehole)  (WLWorkflo)     (LEH-QT)     (QAIT-A)     (QAIT-A)     (QAIT-A)     (QAIT-A)     (QAIT-A)     (QLDT-B)     (QLDT-B)     (QLDT-B)     (QLDT-B)       (QCNT)       (QCNT)       (QCNT)       (QCNT)     (QTGC-B) 
#                         (RT)                                                                                                                                                                                                                 
#                        (6in)        (6in)        (6in)        (3in)        (3in)        (3in)        (3in)        (3in)        (6in)        (6in)        (6in)        (6in)        (6in)        (6in)        (6in)        (6in)        (6in) 
~ASCII
# ...
       3123.43800      6.12500   7212.71393   1399.91137      9.74832      9.86581      9.88577      9.35054     11.53230     -0.02907      4.48731      2.50064      6.22081      2.60416   3040.04900   8757.53900      0.09988     85.62186
       3123.28560      6.12500   7221.49946   1398.91344     12.21117     11.44188     11.56882     10.65136     13.10061     -0.05803      4.02198      2.41987      6.22081      2.53939   3306.06900   9125.66900      0.09956     69.63390
       3123.13320      6.12500   7200.85750   1404.28345     17.94253     16.13878     14.77345     13.31433     16.77809     -0.07626      4.02092      2.35687      6.21357      2.41624   3477.39500   8999.74600      0.11470     59.22155
       3122.98080      6.12500   7222.14242   1392.03856     29.05033     25.02673     24.00265     23.07554     24.25961     -0.08157      4.70859      2.34343      6.22081      2.35461   3742.20300   9286.78100      0.10501     49.47525
       3122.82840      6.12500   7201.25092   1391.23059     34.37480     29.94896     28.32055     26.89392     27.31271     -0.08122      5.23185      2.34700      6.22081      2.33668   3648.07600   9341.18100      0.10579     41.79662
       3122.67600      6.12500   7170.00023   1401.79639     34.27293     32.14720     31.65939     31.38448     28.13577     -0.07067      5.54882      2.36600      6.22081      2.40460   3669.78300   9284.42200      0.11461     39.60676
       3122.52360      6.12500   7215.49931   1396.58487     33.33878     30.97886     33.18916     33.73851     24.34296     -0.07441      4.95546      2.35257      6.21357      2.42482   3595.26800   9713.36300      0.10395     40.71574
       3122.37120      6.12500   7201.99953   1383.83303     32.57428     27.95084     27.87143     30.18200     21.97159     -0.06980      4.58048      2.36117      6.22081      2.52464   3576.29500   9391.71500      0.11946     44.52546
       3122.21880      6.12500   7125.75108   1396.36298     32.11489     26.92225     25.71802     26.12486     19.43917     -0.06534      4.36771      2.37142      6.20632      2.57176   3227.95500   9210.83000      0.13060     47.21733
       3122.06640      6.12500   7151.85815   1406.56436     31.87683     25.89134     23.42922     22.46869     17.87041     -0.05800      4.38264      2.38595      6.20632      2.59702   3177.58300   9070.06500      0.13285     48.84548
       3121.91400      6.12500   7167.28679   1406.89708     31.71495     24.77576     21.73695     20.77691     17.13833     -0.04448      4.63337      2.40638      6.22081      2.50684   3287.06500   8901.25400      0.12851     50.97519
       3121.76160      6.12500   7215.75110   1398.24823     33.22070     25.74778     22.33661     19.17661     17.56910     -0.05762      4.49044      2.38576      6.22081      2.46218   3479.18500   8911.01600      0.11844     53.75484
       3121.60920      6.12500   7205.28624   1401.24201     32.02191     25.16131     22.56095     19.22930     17.62133     -0.05551      4.16781      2.39015      6.20632      2.48751   3382.66700   9165.88200      0.10365     59.21206
       3121.45680      6.12500   7229.57235   1399.91137     25.92330     20.07181     18.39622     16.60676     15.12540     -0.04741      4.02113      2.40860      6.21357      2.58840   3154.06500   8799.95300      0.12069     66.64330
       3121.30440      6.12500   7179.12522   1393.36920     20.86284     15.89781     14.93845     14.22974     12.95643     -0.04415      4.56717      2.44816      6.20632      2.55609   2806.31600   8105.11600      0.14908     77.22834
       3121.15200      6.12500   7185.28499   1393.51173     19.50057     15.67356     14.59448     14.61128     12.50446     -0.03869      5.38821      2.47832      6.22081      2.54657   3088.61800   8045.79800      0.14979     84.49423
       3120.99960      6.12500   7163.50100   1397.25008     22.18281     18.31792     17.06693     16.70182     14.90007     -0.02820      5.68328      2.50265      6.22081      2.46684   3177.28700   8766.66600      0.11501     86.97095
       3120.84720      6.12500   7178.99933   1388.71183     25.34126     21.37580     20.11744     19.84849     17.38265     -0.02168      5.29075      2.51409      6.22081      2.46360   3470.74100   9127.41500      0.09871     91.04239
       3120.69480      6.12500   7179.14321   1386.03481     25.10468     21.47001     20.42869     20.39131     17.66870     -0.03836      4.73913      2.49227      6.20632      2.33658   3573.28100   9270.80500      0.09410    101.49020
       3120.54240      6.12500   7156.12502   1386.49432     20.34705     17.60338     16.85033     17.04253     15.55259     -0.03867      5.57409      2.52406      6.21357      2.23364   3645.96000   8559.07200      0.11283    119.74740
       3120.39000      6.12500   7157.85605   1390.92957     17.46492     14.70465     13.98716     13.84090     12.96462     -0.04933      5.66823      2.55517      6.22081      2.13630   3872.46000   8892.05300      0.09589    132.39810
       3120.23760      6.12500   7158.57094   1385.71805     16.08295     13.36858     12.76200     12.44041     11.76029     -0.04712      6.61648      2.61168      6.21357      2.05522   4139.93600   9435.05800      0.07327    133.90050
       3120.08520      6.12500   7206.99928   1382.23307     14.58937     12.51409     12.04710     11.77895     10.98109     -0.04120      6.67193      2.64415      6.22081      2.03051   4536.87400   9458.50200      0.07637    128.85580
       3119.93280      6.12500   7175.14386   1388.82289     12.79762     10.74839     10.24099     10.01440      9.38491     -0.03775      7.29113      2.64770      6.22081      1.97686   4468.40100   9902.70800      0.06276    126.97990
       3119.78040      6.12500   7186.71477   1391.61075     10.60519      9.40552      8.95429      8.69792      8.16542     -0.03791      6.78123      2.62678      6.21357      2.02541   4714.21000   9924.19100      0.06399    127.61290
       3119.62800      6.12500   7183.25047   1398.91344      9.26205      8.56932      8.13966      7.99828      7.53581     -0.02693      5.97862      2.61910      6.21357      2.09275   4210.06400   9439.62800      0.07912    123.50780
       3119.47560      6.12500   7151.14325   1392.03856      8.15157      7.79740      7.38211      7.25108      6.82080     -0.01433      6.21661      2.62484      6.22081      2.24737   3749.41300   9127.41900      0.09541    117.49410
       3119.32320      6.12500   7206.37432   1419.53786      7.14886      6.72996      6.40660      6.37440      6.01386     -0.02859      7.12814      2.61733      6.21357      2.39331   3339.24300   8702.84600      0.10873    116.55240
       3119.17080      6.12500   7210.28599   1460.01089      6.16395      5.86223      5.58567      5.53861      5.43879     -0.02492      8.14391      2.64505      6.22081      2.48118   3071.75000   8340.01800      0.12006    117.16900
       3119.01840      6.12500   7189.99923   1431.78276      5.38398      5.16404      4.95080      4.87661      4.87657     -0.02568      8.08461      2.67240      6.22081      2.57175   2894.37000   7870.15200      0.13420    116.76660
       3118.86600      6.12500   7327.14393   1420.86851      4.88479      4.66707      4.50751      4.46307      4.50578     -0.04425      8.17945      2.66738      6.22081      2.64117   2662.16700   7719.57900      0.13517    113.92300
       3118.71360      6.12500   7280.99964   1417.96959      4.60162      4.34367      4.22065      4.19805      4.28942     -0.05048      7.63118      2.67103      6.21357      2.72593   2576.81300   7575.87900      0.13697    118.00680
       3118.56120      6.12500   7270.71464   1413.77196      4.42492      4.25568      4.14244      4.07650      4.23103     -0.05378      7.34155      2.65985      6.21357      2.72698   2429.94000   7274.75600      0.14483    125.41370
       3118.40880      6.12500   7245.28650   1393.63830      4.35277      4.24181      4.15843      4.13955      4.31625     -0.06082      7.29816      2.64692      6.22081      2.71207   2419.38200   7023.76100      0.14770    135.95300
