~VERSION INFORMATION 
VERS  .    2.0                                     :CWLS Log ASCII Standard - VERSION 2.0
WRAP  .    NO                                      :One Line per Depth step
PROD  .    Schlumberger Technology Corp.           :LAS Producer
PROG  .    Horizon LASWriter 6.2.68624.3100        :LAS Program name and version
SOURCE.    AT-33-F section 6.125" Run 1/1/1-Log[3]/Up:Run&Pass Information
CREA  .    07/28/2016                              :LAS Creation date {MM/DD/YYYY}
#--------------------------------------------------
~WELL INFORMATION 
#MNEM           .UNIT                      DATA            :DESCRIPTION
#----            ------          --------------            -----------------------------
STRT            .m                   3247.79640            :START DEPTH
STOP            .m                   1513.78920            :STOP DEPTH
STEP            .m                      -0.1524            :STEP
NULL            .                       -999.25            :NULL VALUE
COMP            .                         PTTEP            :COMPANY
WELL            .                       AT-33-F            :WELL NAME
FLD             .                ARTHIT / Block: 15A       :FIELD NAME
RIGN            .                          T-17            :Rig Name
RIGTYP          .                Tender Assisted           :Rig Type
SON             .                    DGEY-00011            :Service Order Number
SRVC            .                  Schlumberger            :SERVICE COMPANY
DATE            .                    07/28/2016            :LOG DATE(Composite Date for Composite LAP) (MM/DD/YYYY)
CLAB            .                     Rig Name:            :County Label
CNTY            .                          T-17            :COUNTY
SLAB            .                      Country:            :State/Province Label
STAT            .                      Thailand            :STATE or PROVINCE
PROV            .                      Thailand            :STATE or PROVINCE
CTRY            .                      Thailand            :COUNTRY
CONT_REGION     .                          Asia            :Continent Region
SECT            .                                          :Section
TOWN            .                                          :Township
RANG            .                                          :Range
API             .                                          :API NUMBER
UWI             .                                          :UNIQUE WELL ID
LUL             .                      Thailand            :Logging Unit Location
LUN             .                          7003            :Logging Unit Number
LOC             .                Gulf of Thailand          :FIELD LOCATION
FL1             .                X: 890 685.860 mE (DATUM: INDIAN 1975):Field Location Line 1
FL2             .                Y: 893 515.640 mN (UTM ZONE 47N):Field Location Line 2
LATI            .deg             8° 4' 7.168" N            :LATITUDE
LONG            .deg             102° 32' 38.971" E        :LONGITUDE
PDAT            .                           MSL            :Local Permanent Datum
LMF             .                            DF            :Logging Measured From
APD             .m                     29.00000            :Elevation of Depth Reference (LMF) Above Permanent Datum
EPD             .m                      0.00000            :Elevation of Permanent Datum (PDAT) above Mean Sea Level
EKB             .m                     29.00000            :Elevation of Kelly Bushing Above Permanent Datum
EDF             .m                     29.00000            :Elevation of Drill Floor Above Permanent Datum
EGL             .m                    -77.08000            :Elevation of Ground Level Above Permanent Datum
ECF             .m                      -999.25            :Elevation of Casing Flange above Permanent Datum
#--------------------------------------------------
~CURVE INFORMATION
#MNEM           .UNIT                  API CODE            :DESCRIPTION
#----            ------          --------------            -----------------------------
DEPT            .m                                         :                                                        Depth Index
BS              .in                                        :(RT)    (Borehole)              (6in)                   Bit Size
TENS            .lbf                                       :        (WLWorkflow)            (6in)                   Cable Tension
HTEN            .lbf                                       :        (LEH-QT)                (6in)                   Head Tension
AT10            .ohm.m                                     :        (QAIT-A)                (3in)                   Array Induction Two Foot Resistivity A10
AT20            .ohm.m                                     :        (QAIT-A)                (3in)                   Array Induction Two Foot Resistivity A20
AT30            .ohm.m                                     :        (QAIT-A)                (3in)                   Array Induction Two Foot Resistivity A30
AT60            .ohm.m                                     :        (QAIT-A)                (3in)                   Array Induction Two Foot Resistivity A60
AT90            .ohm.m                                     :        (QAIT-A)                (3in)                   Array Induction Two Foot Resistivity A90
DRHOLS          .g/cm3                                     :        (QLDT-B)                (6in)                   Density Correction Long Spacing
PEF             .                                          :        (QLDT-B)                (6in)                   Photoelectric Factor
RHOB            .g/cm3                                     :        (QLDT-B)                (6in)                   Bulk Density
CALI            .in                                        :        (QLDT-B)                (6in)                   Caliper
TNRA            .                                          :        (QCNT)                  (6in)                   Thermal Neutron Ratio
CFTC            .1/s                                       :        (QCNT)                  (6in)                   Corrected Far Thermal Count Rate
CNTC            .1/s                                       :        (QCNT)                  (6in)                   Corrected Near Thermal Count Rate
NPOR            .m3/m3                                     :        (QCNT)                  (6in)                   Enhanced Thermal Neutron Porosity in Selected Lithology
GR              .gAPI                                      :        (QTGC-B)                (6in)                   Gamma Ray
#-------------------------------------------------------------
#            DEPT           BS         TENS         HTEN         AT10         AT20         AT30         AT60         AT90       DRHOLS          PEF         RHOB         CALI         TNRA         CFTC         CNTC         NPOR           GR 
#                   (Borehole)  (WLWorkflo)     (LEH-QT)     (QAIT-A)     (QAIT-A)     (QAIT-A)     (QAIT-A)     (QAIT-A)     (QLDT-B)     (QLDT-B)     (QLDT-B)     (QLDT-B)       (QCNT)       (QCNT)       (QCNT)       (QCNT)     (QTGC-B) 
#                         (RT)                                                                                                                                                                                                                 
#                        (6in)        (6in)        (6in)        (3in)        (3in)        (3in)        (3in)        (3in)        (6in)        (6in)        (6in)        (6in)        (6in)        (6in)        (6in)        (6in)        (6in) 
~ASCII
# ...
       2786.63400      6.12500   6557.42958   1329.38858      9.62441      8.88129      8.86101      8.62198      8.93290     -0.02081      5.95370      2.72133      6.22081      2.92761   2590.36500   7982.89500      0.12095    115.74770
       2786.48160      6.12500   6564.99890   1315.52798      7.04358      6.71529      6.69818      6.60156      6.57418     -0.03466      6.74587      2.68432      6.20632      3.14284   2255.91600   7917.65800      0.13393    124.85840
       2786.32920      6.12500   6534.71488   1330.65582      5.62544      5.31497      5.25294      5.26161      5.19524     -0.02870      7.85721      2.67144      6.21357      3.21686   1884.33700   6770.55700      0.18379    142.67860
       2786.17680      6.12500   6562.85647   1332.60424      4.99248      4.90107      4.87173      4.93700      4.82400     -0.01884      8.30604      2.67119      6.22081      3.25960   1775.46600   5897.44600      0.22749    158.92130
       2786.02440      6.12500   6567.24924   1337.03950      5.78028      5.57800      5.54603      5.62251      5.41911     -0.01094      8.88107      2.68541      6.22081      3.22366   1532.82900   5592.15100      0.23006    164.42040
       2785.87200      6.12500   6649.71365   1352.57919      7.02778      6.98217      6.93199      6.94685      6.72385     -0.01574      8.08784      2.68022      6.22081      3.26262   1703.38100   5921.94700      0.21382    155.08330
       2785.71960      6.12500   6656.57257   1364.20631      8.46115      8.30721      8.28041      8.17905      7.98373     -0.00392      8.40705      2.71114      6.22081      3.08461   1946.46900   6711.24900      0.16562    143.28200
       2785.56720      6.12500   6680.42930   1364.11144      9.81715      9.39290      9.46879      9.13926      9.07261     -0.01290      7.87474      2.71606      6.21357      2.86347   2398.25500   7365.94300      0.13916    132.08450
       2785.41480      6.12500   6700.12481   1362.65401     11.38794     10.73712     10.76358     10.12825     10.18196     -0.02871      7.05558      2.69664      6.21357      2.65302   2822.59100   7790.25200      0.12692    123.67810
       2785.26240      6.12500   6658.42949   1342.80562     13.03544     12.08507     12.00785     11.22033     11.18021     -0.03678      6.34998      2.67473      6.21357      2.51414   3046.37400   8426.10300      0.10301    119.00820
       2785.11000      6.12500   6700.57218   1327.74118     13.17408     12.11725     11.90368     11.28445     11.22950     -0.03944      6.43817      2.66126      6.21357      2.52002   3315.11300   8689.96400      0.09805    118.25690
       2784.95760      6.12500   6642.28596   1320.89777     12.29354     11.10718     10.88529     10.44499     10.41133     -0.04131      7.04424      2.65289      6.21357      2.51598   3014.99500   8378.79100      0.11044    120.82210
       2784.80520      6.12500   6612.62467   1339.14641     10.90119      9.92581      9.60183      9.18535      9.30560     -0.04299      7.70906      2.64236      6.16285      2.62478   2902.81400   7990.99800      0.13066    118.18230
       2784.65280      6.12500   6567.71459   1316.58930      9.06452      8.48228      8.13416      7.86340      7.95074     -0.03430      7.97095      2.65904      6.22081      2.69030   2615.70100   7778.83500      0.13358    113.80940
       2784.50040      6.12500   6596.71494   1302.33260      8.19305      7.68393      7.41008      7.16247      7.34033     -0.03314      8.19879      2.66291      6.22081      2.77822   2514.36600   7521.37300      0.14228    112.91710
       2784.34800      6.12500   6589.14338   1304.17018      7.78487      7.25629      7.09636      6.75334      6.99510     -0.03928      7.68181      2.65831      6.20632      2.85132   2391.01200   7263.31300      0.14417    121.36270
       2784.19560      6.12500   6582.25074   1313.97545      6.78824      6.26824      6.07677      5.85191      5.97365     -0.04156      7.93129      2.64859      6.21357      3.03386   2225.61500   7145.96800      0.14769    133.25280
       2784.04320      6.12500   6556.57081   1310.42729      5.63115      5.25363      5.21452      5.05912      5.16838     -0.03443      8.20032      2.66834      6.22081      3.18747   1819.19500   6517.98700      0.18408    139.12970
       2783.89080      6.12500   6607.85647   1321.02456      5.70930      5.40345      5.35023      5.24496      5.27373     -0.03897      8.28772      2.66984      6.22081      3.28012   1682.73500   5949.33400      0.22849    136.28570
       2783.73840      6.12500   6585.85667   1336.81784      6.33954      6.20364      6.21533      5.94712      6.14440     -0.03919      8.04328      2.67554      6.22081      3.24937   1762.79500   6189.23000      0.20673    129.76150
       2783.58600      6.12500   6588.74996   1351.18538      7.24864      6.83757      6.71179      6.45838      6.67905     -0.01811      7.78260      2.71335      6.22806      3.18743   1932.61100   6731.78000      0.16467    130.14480
       2783.43360      6.12500   6639.42864   1340.36622      7.51853      7.13347      7.17982      6.86317      7.14489     -0.02764      7.33742      2.70275      6.22081      3.08173   2106.91100   7026.10700      0.14781    135.14770
       2783.28120      6.12500   6663.28537   1341.14249      7.06747      6.64899      6.63911      6.26777      6.60548     -0.06236      6.80317      2.63799      6.22564      3.05238   2153.37600   6822.97100      0.16273    139.18280
       2783.12880      6.12500   6651.85833   1346.87691      6.64408      6.26020      6.37698      6.11299      6.44578     -0.06179      6.71548      2.62157      6.22081      3.16122   1984.45400   6723.61500      0.17467    139.21420
       2782.97640      6.12500   6628.12525   1350.23488      6.34167      5.89111      5.85701      5.72981      6.02524     -0.07323      6.88263      2.59162      6.22806      3.30626   1828.84500   6743.86500      0.18393    136.68890
       2782.82400      6.12500   6605.85792   1346.49631      5.82378      5.60824      5.59239      5.55110      5.80407     -0.07685      7.37251      2.60354      6.22806      3.41858   1762.99000   6414.64300      0.20690    132.70010
       2782.67160      6.12500   6653.71525   1364.76069      6.06498      5.82009      5.86101      5.81138      6.08377     -0.07376      7.04663      2.62941      6.21765      3.33236   1720.56300   6455.75300      0.20478    124.74770
       2782.51920      6.12500   6634.50083   1370.06730      6.96442      6.62982      6.60978      6.45410      6.85687     -0.04539      7.47030      2.68522      6.22895      3.16545   1889.46600   6439.51000      0.19506    111.33880
       2782.36680      6.12500   6644.99941   1371.08142      7.60748      7.74682      7.78295      7.58885      8.16039     -0.04917      7.37596      2.68505      6.22171      2.92011   2226.96500   6898.30200      0.15925     98.43767
       2782.21440      6.12500   6664.85678   1349.23696      9.26818      8.89666      8.75750      8.42753      9.15461     -0.05961      6.44760      2.65618      6.22895      2.74391   2565.03200   7584.94700      0.11335     94.89218
       2782.06200      6.12500   6676.28607   1341.68113      8.21850      7.84510      7.99155      7.58941      8.19165     -0.06569      6.94616      2.63108      6.21448      2.79502   2744.47500   7786.49400      0.11199    101.10080
       2781.90960      6.12500   6629.75062   1354.55953      7.79882      6.69502      6.87479      6.78042      7.11285     -0.04676      7.78739      2.61579      6.21448      3.03784   2189.43600   7144.68100      0.14037    115.32420
       2781.75720      6.12500   6579.42938   1349.56945      6.01888      5.69848      5.79684      5.74605      5.90362     -0.05626      7.92458      2.52990      6.22171      3.49595   1796.57800   6726.22400      0.17975    130.32600
       2781.60480      6.12500   6593.50018   1330.52903      7.47779      7.12087      7.28435      7.59728      7.79679     -0.07243      8.49443      2.44658      6.22806      3.63156   1259.44200   5442.90600      0.25134    146.55380
