~VERSION INFORMATION 
VERS  .    2.0                                     :CWLS Log ASCII Standard - VERSION 2.0
WRAP  .    NO                                      :One Line per Depth step
PROD  .    Schlumberger Technology Corp.           :LAS Producer
PROG  .    Horizon LASWriter 6.2.68624.3100        :LAS Program name and version
SOURCE.    AT-33-F section 6.125" Run 1/1/1-Log[3]/Up:Run&Pass Information
CREA  .    07/28/2016                              :LAS Creation date {MM/DD/YYYY}
#--------------------------------------------------
~WELL INFORMATION 
#MNEM           .UNIT                      DATA            :DESCRIPTION
#----            ------          --------------            -----------------------------
STRT            .m                   3247.79640            :START DEPTH
STOP            .m                   1513.78920            :STOP DEPTH
STEP            .m                      -0.1524            :STEP
NULL            .                       -999.25            :NULL VALUE
COMP            .                         PTTEP            :COMPANY
WELL            .                       AT-33-F            :WELL NAME
FLD             .                ARTHIT / Block: 15A       :FIELD NAME
RIGN            .                          T-17            :Rig Name
RIGTYP          .                Tender Assisted           :Rig Type
SON             .                    DGEY-00011            :Service Order Number
SRVC            .                  Schlumberger            :SERVICE COMPANY
DATE            .                    07/28/2016            :LOG DATE(Composite Date for Composite LAP) (MM/DD/YYYY)
CLAB            .                     Rig Name:            :County Label
CNTY            .                          T-17            :COUNTY
SLAB            .                      Country:            :State/Province Label
STAT            .                      Thailand            :STATE or PROVINCE
PROV            .                      Thailand            :STATE or PROVINCE
CTRY            .                      Thailand            :COUNTRY
CONT_REGION     .                          Asia            :Continent Region
SECT            .                                          :Section
TOWN            .                                          :Township
RANG            .                                          :Range
API             .                                          :API NUMBER
UWI             .                                          :UNIQUE WELL ID
LUL             .                      Thailand            :Logging Unit Location
LUN             .                          7003            :Logging Unit Number
LOC             .                Gulf of Thailand          :FIELD LOCATION
FL1             .                X: 890 685.860 mE (DATUM: INDIAN 1975):Field Location Line 1
FL2             .                Y: 893 515.640 mN (UTM ZONE 47N):Field Location Line 2
LATI            .deg             8° 4' 7.168" N            :LATITUDE
LONG            .deg             102° 32' 38.971" E        :LONGITUDE
PDAT            .                           MSL            :Local Permanent Datum
LMF             .                            DF            :Logging Measured From
APD             .m                     29.00000            :Elevation of Depth Reference (LMF) Above Permanent Datum
EPD             .m                      0.00000            :Elevation of Permanent Datum (PDAT) above Mean Sea Level
EKB             .m                     29.00000            :Elevation of Kelly Bushing Above Permanent Datum
EDF             .m                     29.00000            :Elevation of Drill Floor Above Permanent Datum
EGL             .m                    -77.08000            :Elevation of Ground Level Above Permanent Datum
ECF             .m                      -999.25            :Elevation of Casing Flange above Permanent Datum
#--------------------------------------------------
~CURVE INFORMATION
#MNEM           .UNIT                  API CODE            :DESCRIPTION
#----            ------          --------------            -----------------------------
DEPT            .m                                         :                                                        Depth Index
BS              .in                                        :(RT)    (Borehole)              (6in)                   Bit Size
TENS            .lbf                                       :        (WLWorkflow)            (6in)                   Cable Tension
HTEN            .lbf                                       :        (LEH-QT)                (6in)                   Head Tension
AT10            .ohm.m                                     :        (QAIT-A)                (3in)                   Array Induction Two Foot Resistivity A10
AT20            .ohm.m                                     :        (QAIT-A)                (3in)                   Array Induction Two Foot Resistivity A20
AT30            .ohm.m                                     :        (QAIT-A)                (3in)                   Array Induction Two Foot Resistivity A30
AT60            .ohm.m                                     :        (QAIT-A)                (3in)                   Array Induction Two Foot Resistivity A60
AT90            .ohm.m                                     :        (QAIT-A)                (3in)                   Array Induction Two Foot Resistivity A90
DRHOLS          .g/cm3                                     :        (QLDT-B)                (6in)                   Density Correction Long Spacing
PEF             .                                          :        (QLDT-B)                (6in)                   Photoelectric Factor
RHOB            .g/cm3                                     :        (QLDT-B)                (6in)                   Bulk Density
CALI            .in                                        :        (QLDT-B)                (6in)                   Caliper
TNRA            .                                          :        (QCNT)                  (6in)                   Thermal Neutron Ratio
CFTC            .1/s                                       :        (QCNT)                  (6in)                   Corrected Far Thermal Count Rate
CNTC            .1/s                                       :        (QCNT)                  (6in)                   Corrected Near Thermal Count Rate
NPOR            .m3/m3                                     :        (QCNT)                  (6in)                   Enhanced Thermal Neutron Porosity in Selected Lithology
GR              .gAPI                                      :        (QTGC-B)                (6in)                   Gamma Ray
#-------------------------------------------------------------
#            DEPT           BS         TENS         HTEN         AT10         AT20         AT30         AT60         AT90       DRHOLS          PEF         RHOB         CALI         TNRA         CFTC         CNTC         NPOR           GR 
#                   (Borehole)  (WLWorkflo)     (LEH-QT)     (QAIT-A)     (QAIT-A)     (QAIT-A)     (QAIT-A)     (QAIT-A)     (QLDT-B)     (QLDT-B)     (QLDT-B)     (QLDT-B)       (QCNT)       (QCNT)       (QCNT)       (QCNT)     (QTGC-B) 
#                         (RT)                                                                                                                                                                                                                 
#                        (6in)        (6in)        (6in)        (3in)        (3in)        (3in)        (3in)        (3in)        (6in)        (6in)        (6in)        (6in)        (6in)        (6in)        (6in)        (6in)        (6in) 
~ASCII
# ...
       2672.63880      6.12500   6323.00106   1300.24165      4.71883      4.51565      4.44064      4.33330      4.35864     -0.07373      6.38420      2.59716      6.23530      3.14625   1831.25600   6214.54400      0.16559    140.05380
       2672.48640      6.12500   6294.12435   1324.50955      4.42464      4.25614      4.20671      4.10144      4.13060     -0.06115      6.44202      2.60871      6.23530      3.23026   1712.29500   6115.86200      0.17512    136.21040
       2672.33400      6.12500   6348.14369   1323.95517      4.27896      4.11976      4.08327      3.98499      4.03463     -0.06228      6.82282      2.59817      6.22806      3.31796   1676.24400   5871.10600      0.19693    133.22100
       2672.18160      6.12500   6358.87607   1313.29428      4.37116      4.16533      4.14348      4.02297      4.09175     -0.06932      7.02833      2.59777      6.23530      3.34465   1643.06400   6042.85600      0.18393    134.49120
       2672.02920      6.12500   6377.42956   1320.62867      4.55981      4.35604      4.32912      4.18750      4.24897     -0.06012      7.56357      2.63189      6.23530      3.35409   1631.91100   5969.86800      0.19570    137.11360
       2671.87680      6.12500   6383.00032   1312.64503      4.88456      4.61168      4.60876      4.46088      4.48294     -0.04010      7.79310      2.68846      6.23530      3.37627   1627.68800   5750.86200      0.21387    139.18870
       2671.72440      6.12500   6382.50125   1302.64958      5.19888      4.91300      4.93168      4.75354      4.77112     -0.04032      7.99672      2.71068      6.23530      3.34073   1697.35200   6364.53500      0.18031    139.49130
       2671.57200      6.12500   6364.57273   1307.98789      5.58085      5.28000      5.28762      5.07898      5.11127     -0.02552      7.12657      2.72699      6.23530      3.27986   1797.63900   6369.07400      0.17356    142.14020
       2671.41960      6.12500   6333.71546   1310.12627      5.74797      5.53152      5.48487      5.28934      5.34698     -0.04305      6.06504      2.66786      6.24255      3.15170   1912.69000   6380.51900      0.16994    145.24720
       2671.26720      6.12500   6329.57223   1329.94296      5.81137      5.68136      5.60330      5.40020      5.46952     -0.04289      6.32592      2.63648      6.23530      3.10884   1942.26200   6476.24900      0.16179    147.28360
       2671.11480      6.12500   6324.99961   1325.39687      5.95013      5.68152      5.62262      5.44763      5.52597     -0.05416      6.51157      2.60624      6.23530      3.07599   1847.23200   6288.24000      0.16770    145.53210
       2670.96240      6.12500   6385.14275   1301.63569      5.97574      5.64494      5.48519      5.29355      5.40933     -0.03806      7.25501      2.63648      6.26428      3.14609   1944.65800   6280.09800      0.17496    142.05580
       2670.81000      6.12500   6349.71511   1301.88905      5.94217      5.53553      5.47997      5.26072      5.41230     -0.04203      7.38810      2.63831      6.23530      3.16756   1777.57600   6330.93100      0.16469    136.93870
       2670.65760      6.12500   6328.49989   1303.10886      5.98250      5.53474      5.48293      5.28017      5.39252     -0.03785      7.58392      2.64408      6.22081      3.26666   1815.77400   6307.47200      0.17388    133.40770
       2670.50520      6.12500   6298.71495   1295.29922      6.00626      5.52213      5.44307      5.25290      5.33498     -0.04636      7.50174      2.62306      6.23530      3.34142   1674.12900   5944.09900      0.18749    131.76720
       2670.35280      6.12500   6294.85723   1300.44780      5.76781      5.40578      5.32983      5.15804      5.22057     -0.04264      7.34777      2.61511      6.21357      3.53054   1561.03000   5937.89000      0.19775    128.91380
       2670.20040      6.12500   6299.62543   1327.83627      5.51087      5.17305      5.08530      4.94529      4.95373     -0.03775      7.08878      2.61867      6.22081      3.75889   1338.45200   5469.65900      0.23405    131.43620
       2670.04800      6.12500   6330.14324   1349.23696      5.07314      4.80250      4.74235      4.61829      4.54849     -0.04196      7.37543      2.59428      6.22806      3.80550   1237.73800   5310.56300      0.24415    138.17150
       2669.89560      6.12500   6373.37625   1373.61569      4.48614      4.28325      4.21835      4.16179      4.14007     -0.04931      7.47845      2.56206      6.21357      3.70931   1346.89900   5326.81200      0.21971    142.02820
       2669.74320      6.12500   6434.85700   1378.28879      3.94966      3.82527      3.76828      3.70296      3.71526     -0.04545      7.46908      2.54859      6.22081      3.59018   1380.24100   5210.18800      0.20958    140.57850
       2669.59080      6.12500   6481.25082   1337.70471      3.54125      3.42533      3.39467      3.33994      3.36314     -0.04572      7.48640      2.54813      6.22081      3.69048   1321.56000   5160.04600      0.21945    138.62130
       2669.43840      6.12500   6501.71518   1314.30817      3.32550      3.21346      3.16564      3.10419      3.13751     -0.04092      7.11534      2.56558      6.17735      3.82188   1186.46000   5077.91200      0.22872    143.29910
       2669.28600      6.12500   6371.71491   1311.53605      3.41615      3.29947      3.26659      3.19491      3.25271     -0.03103      8.07750      2.58491      6.22081      3.91535   1201.23600   5045.98600      0.24058    153.17540
       2669.13360      6.12500   6285.50068   1291.02246      3.59268      3.47316      3.45165      3.37860      3.43792     -0.02598      8.56591      2.60146      6.22081      3.85206   1152.68200   4849.79600      0.24812    157.79470
       2668.98120      6.12500   6263.42894   1277.30439      3.64497      3.52139      3.50337      3.43226      3.48381     -0.03356      8.45546      2.59564      6.22806      3.87624   1220.23800   4972.20200      0.24362    159.53230
       2668.82880      6.12500   6227.74951   1311.97960      3.69705      3.56046      3.54550      3.48004      3.52528     -0.01940      7.94480      2.61956      6.22806      3.88121   1192.02000   5100.68800      0.22589    160.99270
       2668.67640      6.12500   6276.71515   1322.51369      3.76961      3.64748      3.63662      3.57351      3.60853     -0.01616      7.56024      2.61809      6.22806      3.92637   1224.44900   5171.44800      0.23256    163.47180
       2668.52400      6.12500   6366.74888   1314.41900      3.90224      3.75825      3.73311      3.66173      3.68840     -0.02114      8.12498      2.60275      6.22081      3.86819   1173.79400   4954.73500      0.24848    161.15040
       2668.37160      6.12500   6409.71437   1332.93696      3.98284      3.84379      3.81721      3.73134      3.73990     -0.02705      8.13619      2.59680      6.22081      3.85922   1243.45700   5086.38100      0.24564    153.02570
       2668.21920      6.12500   6412.00068   1327.61438      3.98105      3.83161      3.80605      3.71737      3.72428     -0.02217      7.95618      2.59957      6.22081      3.84377   1249.79300   5242.16500      0.23130    146.45580
       2668.06680      6.12500   6424.57199   1304.32845      3.97983      3.83112      3.80453      3.69338      3.70291     -0.00624      8.21689      2.62863      6.22806      3.85777   1294.12600   5397.84800      0.22174    148.71370
       2667.91440      6.12500   6349.57123   1301.63569      3.98117      3.82304      3.79547      3.70009      3.65788     -0.01627      8.05771      2.61437      6.22806      3.90630   1313.26200   5431.51000      0.23174    155.62050
       2667.76200      6.12500   6302.57043   1314.52983      3.98405      3.78846      3.75268      3.67423      3.61586     -0.02025      7.62961      2.61869      6.22806      3.88563   1192.79600   5190.66600      0.24776    154.99650
       2667.60960      6.12500   6282.62538   1296.01232      3.96676      3.78284      3.73685      3.65834      3.57868     -0.01323      7.15125      2.61797      6.22081      3.81242   1302.87300   5347.09700      0.23659    150.24560
