~VERSION INFORMATION 
VERS  .    2.0                                     :CWLS Log ASCII Standard - VERSION 2.0
WRAP  .    NO                                      :One Line per Depth step
PROD  .    Schlumberger Technology Corp.           :LAS Producer
PROG  .    Horizon LASWriter 6.2.68624.3100        :LAS Program name and version
SOURCE.    AT-33-F section 6.125" Run 1/1/1-Log[2]/Down:Run&Pass Information
CREA  .    07/28/2016                              :LAS Creation date {MM/DD/YYYY}
#--------------------------------------------------
~WELL INFORMATION 
#MNEM           .UNIT                      DATA            :DESCRIPTION
#----            ------          --------------            -----------------------------
STRT            .m                   1518.36120            :START DEPTH
STOP            .m                   3242.61480            :STOP DEPTH
STEP            .m                       0.1524            :STEP
NULL            .                       -999.25            :NULL VALUE
COMP            .                         PTTEP            :COMPANY
WELL            .                       AT-33-F            :WELL NAME
FLD             .                ARTHIT / Block: 15A       :FIELD NAME
RIGN            .                          T-17            :Rig Name
RIGTYP          .                Tender Assisted           :Rig Type
SON             .                    DGEY-00011            :Service Order Number
SRVC            .                  Schlumberger            :SERVICE COMPANY
DATE            .                    07/28/2016            :LOG DATE(Composite Date for Composite LAP) (MM/DD/YYYY)
CLAB            .                     Rig Name:            :County Label
CNTY            .                          T-17            :COUNTY
SLAB            .                      Country:            :State/Province Label
STAT            .                      Thailand            :STATE or PROVINCE
PROV            .                      Thailand            :STATE or PROVINCE
CTRY            .                      Thailand            :COUNTRY
CONT_REGION     .                          Asia            :Continent Region
SECT            .                                          :Section
TOWN            .                                          :Township
RANG            .                                          :Range
API             .                                          :API NUMBER
UWI             .                                          :UNIQUE WELL ID
LUL             .                      Thailand            :Logging Unit Location
LUN             .                          7003            :Logging Unit Number
LOC             .                Gulf of Thailand          :FIELD LOCATION
FL1             .                X: 890 685.860 mE (DATUM: INDIAN 1975):Field Location Line 1
FL2             .                Y: 893 515.640 mN (UTM ZONE 47N):Field Location Line 2
LATI            .deg             8° 4' 7.168" N            :LATITUDE
LONG            .deg             102° 32' 38.971" E        :LONGITUDE
PDAT            .                           MSL            :Local Permanent Datum
LMF             .                            DF            :Logging Measured From
APD             .m                     29.00000            :Elevation of Depth Reference (LMF) Above Permanent Datum
EPD             .m                      0.00000            :Elevation of Permanent Datum (PDAT) above Mean Sea Level
EKB             .m                     29.00000            :Elevation of Kelly Bushing Above Permanent Datum
EDF             .m                     29.00000            :Elevation of Drill Floor Above Permanent Datum
EGL             .m                    -77.08000            :Elevation of Ground Level Above Permanent Datum
ECF             .m                      -999.25            :Elevation of Casing Flange above Permanent Datum
#--------------------------------------------------
~CURVE INFORMATION
#MNEM           .UNIT                  API CODE            :DESCRIPTION
#----            ------          --------------            -----------------------------
DEPT            .m                                         :                                                        Depth Index
BS              .in                                        :(RT)    (Borehole)              (6in)                   Bit Size
TENS            .lbf                                       :        (WLWorkflow)            (6in)                   Cable Tension
HTEN            .lbf                                       :        (LEH-QT)                (6in)                   Head Tension
AT10            .ohm.m                                     :        (QAIT-A)                (3in)                   Array Induction Two Foot Resistivity A10
AT20            .ohm.m                                     :        (QAIT-A)                (3in)                   Array Induction Two Foot Resistivity A20
AT30            .ohm.m                                     :        (QAIT-A)                (3in)                   Array Induction Two Foot Resistivity A30
AT60            .ohm.m                                     :        (QAIT-A)                (3in)                   Array Induction Two Foot Resistivity A60
AT90            .ohm.m                                     :        (QAIT-A)                (3in)                   Array Induction Two Foot Resistivity A90
DRHOLS          .g/cm3                                     :        (QLDT-B)                (6in)                   Density Correction Long Spacing
PEF             .                                          :        (QLDT-B)                (6in)                   Photoelectric Factor
RHOB            .g/cm3                                     :        (QLDT-B)                (6in)                   Bulk Density
CALI            .in                                        :        (QLDT-B)                (6in)                   Caliper
TNRA            .                                          :        (QCNT)                  (6in)                   Thermal Neutron Ratio
CFTC            .1/s                                       :        (QCNT)                  (6in)                   Corrected Far Thermal Count Rate
CNTC            .1/s                                       :        (QCNT)                  (6in)                   Corrected Near Thermal Count Rate
NPOR            .m3/m3                                     :        (QCNT)                  (6in)                   Enhanced Thermal Neutron Porosity in Selected Lithology
GR              .gAPI                                      :        (QTGC-B)                (6in)                   Gamma Ray
#-------------------------------------------------------------
#            DEPT           BS         TENS         HTEN         AT10         AT20         AT30         AT60         AT90       DRHOLS          PEF         RHOB         CALI         TNRA         CFTC         CNTC         NPOR           GR 
#                   (Borehole)  (WLWorkflo)     (LEH-QT)     (QAIT-A)     (QAIT-A)     (QAIT-A)     (QAIT-A)     (QAIT-A)     (QLDT-B)     (QLDT-B)     (QLDT-B)     (QLDT-B)       (QCNT)       (QCNT)       (QCNT)       (QCNT)     (QTGC-B) 
#                         (RT)                                                                                                                                                                                                                 
#                        (6in)        (6in)        (6in)        (3in)        (3in)        (3in)        (3in)        (3in)        (6in)        (6in)        (6in)        (6in)        (6in)        (6in)        (6in)        (6in)        (6in) 
~ASCII
# ...
       3223.10760      6.12500   2919.00025   1173.81697      9.45171      8.64204      8.55481      8.22173      7.90680     -0.07094      5.84164      2.67208      6.24979      -999.25      -999.25   6749.57800      0.18848      -999.25
       3223.26000      6.12500   2921.74966   1181.14776      7.35248      6.71862      6.70100      6.54017      6.40297     -0.06313      6.16200      2.68472      6.25704      -999.25      -999.25      -999.25      -999.25      -999.25
       3223.41240      6.12500   2925.49947   1181.34492      5.41806      5.15950      5.16523      5.03177      4.93338     -0.05072      6.57593      2.68714      6.24979      -999.25      -999.25      -999.25      -999.25      -999.25
       3223.56480      6.12500   2939.62422   1183.02042      4.32707      4.10809      4.10365      4.07052      4.04698     -0.05322      6.73034      2.66710      6.24979      -999.25      -999.25      -999.25      -999.25      -999.25
       3223.71720      6.12500   2919.00025   1178.47433      4.39047      4.22657      4.23878      4.19615      4.15886     -0.04370      7.59161      2.66587      6.24255      -999.25      -999.25      -999.25      -999.25      -999.25
       3223.86960      6.12500   2918.49892   1175.62825      5.43289      5.20734      5.10557      5.03382      5.07802     -0.03672      7.24900      2.67102      6.22806      -999.25      -999.25      -999.25      -999.25      -999.25
       3224.02200      6.12500   2886.37597   1170.89692      6.67390      6.44037      6.31447      6.29551      6.24091     -0.03290      7.71136      2.68737      6.23530      -999.25      -999.25      -999.25      -999.25      -999.25
       3224.17440      6.12500   2921.44392   1164.88463      7.09864      6.99573      6.84951      6.71397      6.69667     -0.04428      6.60764      2.68400      6.22081      -999.25      -999.25      -999.25      -999.25      -999.25
       3224.32680      6.12500   2898.12449   1158.51490      6.80248      6.73624      6.65546      6.52268      6.38368     -0.01989      6.99785      2.72037      6.22564      -999.25      -999.25      -999.25      -999.25      -999.25
       3224.47920      6.12500   2900.44452   1159.46359      5.85033      5.78237      5.73881      5.57015      5.54200     -0.02764      7.51107      2.70104      6.22806      -999.25      -999.25      -999.25      -999.25      -999.25
       3224.63160      6.12500   2904.74961   1175.03678      4.98418      4.80647      4.73006      4.57610      4.64744     -0.03032      8.54103      2.68921      6.23530      -999.25      -999.25      -999.25      -999.25      -999.25
       3224.78400      6.12500   2883.24888   1179.80498      4.58115      4.43445      4.35905      4.22414      4.43975     -0.02112      9.72340      2.70476      6.23530      -999.25      -999.25      -999.25      -999.25      -999.25
       3224.93640      6.12500   2913.12599   1177.20529      5.27863      4.97413      4.91383      4.77901      4.99684     -0.03358      8.52316      2.67436      6.24013      -999.25      -999.25      -999.25      -999.25      -999.25
       3225.08880      6.12500   2913.22266   1181.44338      5.98631      5.63972      5.56471      5.41825      5.58498     -0.05718      8.38060      2.64063      6.24255      -999.25      -999.25      -999.25      -999.25      -999.25
       3225.24120      6.12500   2903.00060   1186.34714      5.96141      5.58793      5.41876      5.31207      5.31910     -0.05973      7.62318      2.64501      6.24979      -999.25      -999.25      -999.25      -999.25      -999.25
       3225.39360      6.12500   2931.25009   1175.23394      6.17430      5.80363      5.64502      5.45304      5.55135     -0.05132      7.60186      2.67279      6.24979      -999.25      -999.25      -999.25      -999.25      -999.25
       3225.54600      6.12500   2932.55623   1170.10852      8.08953      7.63623      7.34207      6.94741      6.82344     -0.06460      7.05643      2.66117      6.24979      -999.25      -999.25      -999.25      -999.25      -999.25
       3225.69840      6.12500   2909.66618   1164.78617     11.47548     11.11669     10.81565      9.91857      9.63674     -0.06102      7.05005      2.66640      6.24255      -999.25      -999.25      -999.25      -999.25      -999.25
       3225.85080      6.12500   2914.00050   1140.04639     13.14048     12.43774     12.39899     10.77248     10.91668     -0.06336      6.52322      2.65997      6.23530      -999.25      -999.25      -999.25      -999.25      -999.25
       3226.00320      6.12500   2895.62461   1147.73441     10.60990      9.81737      9.74156      8.96212      8.72315     -0.06116      6.45945      2.66391      6.24255      -999.25      -999.25      -999.25      -999.25      -999.25
       3226.15560      6.12500   2885.12604   1157.07342      7.25244      6.76850      6.82838      6.43841      6.33680     -0.04719      7.16473      2.67737      6.23530      -999.25      -999.25      -999.25      -999.25      -999.25
       3226.30800      6.12500   2887.99910   1155.96444      5.18782      4.93661      5.03553      4.85225      4.83905     -0.04494      7.62981      2.67642      6.22806      -999.25      -999.25      -999.25      -999.25      -999.25
       3226.46040      6.12500   2897.49952   1152.26835      4.38493      4.21744      4.21892      4.09986      4.19638     -0.04114      7.60049      2.67945      6.22806      -999.25      -999.25      -999.25      -999.25      -999.25
       3226.61280      6.12500   2921.37423   1158.47803      4.36974      4.23946      4.24231      4.18579      4.24654     -0.05226      7.11438      2.66242      6.22564      -999.25      -999.25      -999.25      -999.25      -999.25
       3226.76520      6.12500   2912.50102   1151.86167      4.47472      4.32921      4.28980      4.30348      3.95386     -0.05446      8.17296      2.66135      6.22081      -999.25      -999.25      -999.25      -999.25      -999.25
       3226.91760      6.12500   2916.11145   1156.21105      4.18627      4.04411      4.09796      4.07993      3.75795     -0.07732      8.41432      2.62979      6.22081      -999.25      -999.25      -999.25      -999.25      -999.25
       3227.07000      6.12500   2912.50102   1161.73056      3.95451      3.87390      3.82832      3.77642      3.53820     -0.06441      8.84400      2.64750      6.22806      -999.25      -999.25      -999.25      -999.25      -999.25
       3227.22240      6.12500   2901.62477   1160.17803      3.73079      3.64235      3.62777      3.60179      3.40335     -0.06570      8.47209      2.64985      6.22081      -999.25      -999.25      -999.25      -999.25      -999.25
       3227.37480      6.12500   2887.74956   1154.83095      3.85392      3.69907      3.59511      3.30355      3.37635     -0.05848      8.78764      2.66891      6.22081      -999.25      -999.25      -999.25      -999.25      -999.25
       3227.52720      6.12500   2911.11170   1155.18840      3.89698      3.65902      3.47550      3.16234      3.31172     -0.04803      8.28618      2.68022      6.22564      -999.25      -999.25      -999.25      -999.25      -999.25
       3227.67960      6.12500   2887.74956   1165.87019      3.72701      3.53104      3.41439      3.17752      3.27909     -0.04203      9.14327      2.68992      6.22081      -999.25      -999.25      -999.25      -999.25      -999.25
       3227.83200      6.12500   2907.62492   1165.61144      3.76343      3.59499      3.45323      3.25766      3.25816     -0.04622     11.69534      2.67870      6.22806      -999.25      -999.25      -999.25      -999.25      -999.25
       3227.98440      6.12500   2898.99900   1164.29316      3.90881      3.73857      3.62165      3.46888      3.29767     -0.05558     11.69534      2.66619      6.23530      -999.25      -999.25      -999.25      -999.25      -999.25
       3228.13680      6.12500   2916.77689   1164.68747      4.05205      3.87699      3.95566      3.83218      3.45806      -999.25      -999.25      -999.25      6.22081      -999.25      -999.25      -999.25      -999.25      -999.25
