~VERSION INFORMATION 
VERS  .    2.0                                     :CWLS Log ASCII Standard - VERSION 2.0
WRAP  .    NO                                      :One Line per Depth step
PROD  .    Schlumberger Technology Corp.           :LAS Producer
PROG  .    Horizon LASWriter 6.2.68624.3100        :LAS Program name and version
SOURCE.    AT-33-F section 6.125" Run 1/1/1-Log[3]/Up:Run&Pass Information
CREA  .    07/28/2016                              :LAS Creation date {MM/DD/YYYY}
#--------------------------------------------------
~WELL INFORMATION 
#MNEM           .UNIT                      DATA            :DESCRIPTION
#----            ------          --------------            -----------------------------
STRT            .m                   3247.79640            :START DEPTH
STOP            .m                   1513.78920            :STOP DEPTH
STEP            .m                      -0.1524            :STEP
NULL            .                       -999.25            :NULL VALUE
COMP            .                         PTTEP            :COMPANY
WELL            .                       AT-33-F            :WELL NAME
FLD             .                ARTHIT / Block: 15A       :FIELD NAME
RIGN            .                          T-17            :Rig Name
RIGTYP          .                Tender Assisted           :Rig Type
SON             .                    DGEY-00011            :Service Order Number
SRVC            .                  Schlumberger            :SERVICE COMPANY
DATE            .                    07/28/2016            :LOG DATE(Composite Date for Composite LAP) (MM/DD/YYYY)
CLAB            .                     Rig Name:            :County Label
CNTY            .                          T-17            :COUNTY
SLAB            .                      Country:            :State/Province Label
STAT            .                      Thailand            :STATE or PROVINCE
PROV            .                      Thailand            :STATE or PROVINCE
CTRY            .                      Thailand            :COUNTRY
CONT_REGION     .                          Asia            :Continent Region
SECT            .                                          :Section
TOWN            .                                          :Township
RANG            .                                          :Range
API             .                                          :API NUMBER
UWI             .                                          :UNIQUE WELL ID
LUL             .                      Thailand            :Logging Unit Location
LUN             .                          7003            :Logging Unit Number
LOC             .                Gulf of Thailand          :FIELD LOCATION
FL1             .                X: 890 685.860 mE (DATUM: INDIAN 1975):Field Location Line 1
FL2             .                Y: 893 515.640 mN (UTM ZONE 47N):Field Location Line 2
LATI            .deg             8° 4' 7.168" N            :LATITUDE
LONG            .deg             102° 32' 38.971" E        :LONGITUDE
PDAT            .                           MSL            :Local Permanent Datum
LMF             .                            DF            :Logging Measured From
APD             .m                     29.00000            :Elevation of Depth Reference (LMF) Above Permanent Datum
EPD             .m                      0.00000            :Elevation of Permanent Datum (PDAT) above Mean Sea Level
EKB             .m                     29.00000            :Elevation of Kelly Bushing Above Permanent Datum
EDF             .m                     29.00000            :Elevation of Drill Floor Above Permanent Datum
EGL             .m                    -77.08000            :Elevation of Ground Level Above Permanent Datum
ECF             .m                      -999.25            :Elevation of Casing Flange above Permanent Datum
#--------------------------------------------------
~CURVE INFORMATION
#MNEM           .UNIT                  API CODE            :DESCRIPTION
#----            ------          --------------            -----------------------------
DEPT            .m                                         :                                                        Depth Index
BS              .in                                        :(RT)    (Borehole)              (6in)                   Bit Size
TENS            .lbf                                       :        (WLWorkflow)            (6in)                   Cable Tension
HTEN            .lbf                                       :        (LEH-QT)                (6in)                   Head Tension
AT10            .ohm.m                                     :        (QAIT-A)                (3in)                   Array Induction Two Foot Resistivity A10
AT20            .ohm.m                                     :        (QAIT-A)                (3in)                   Array Induction Two Foot Resistivity A20
AT30            .ohm.m                                     :        (QAIT-A)                (3in)                   Array Induction Two Foot Resistivity A30
AT60            .ohm.m                                     :        (QAIT-A)                (3in)                   Array Induction Two Foot Resistivity A60
AT90            .ohm.m                                     :        (QAIT-A)                (3in)                   Array Induction Two Foot Resistivity A90
DRHOLS          .g/cm3                                     :        (QLDT-B)                (6in)                   Density Correction Long Spacing
PEF             .                                          :        (QLDT-B)                (6in)                   Photoelectric Factor
RHOB            .g/cm3                                     :        (QLDT-B)                (6in)                   Bulk Density
CALI            .in                                        :        (QLDT-B)                (6in)                   Caliper
TNRA            .                                          :        (QCNT)                  (6in)                   Thermal Neutron Ratio
CFTC            .1/s                                       :        (QCNT)                  (6in)                   Corrected Far Thermal Count Rate
CNTC            .1/s                                       :        (QCNT)                  (6in)                   Corrected Near Thermal Count Rate
NPOR            .m3/m3                                     :        (QCNT)                  (6in)                   Enhanced Thermal Neutron Porosity in Selected Lithology
GR              .gAPI                                      :        (QTGC-B)                (6in)                   Gamma Ray
#-------------------------------------------------------------
#            DEPT           BS         TENS         HTEN         AT10         AT20         AT30         AT60         AT90       DRHOLS          PEF         RHOB         CALI         TNRA         CFTC         CNTC         NPOR           GR 
#                   (Borehole)  (WLWorkflo)     (LEH-QT)     (QAIT-A)     (QAIT-A)     (QAIT-A)     (QAIT-A)     (QAIT-A)     (QLDT-B)     (QLDT-B)     (QLDT-B)     (QLDT-B)       (QCNT)       (QCNT)       (QCNT)       (QCNT)     (QTGC-B) 
#                         (RT)                                                                                                                                                                                                                 
#                        (6in)        (6in)        (6in)        (3in)        (3in)        (3in)        (3in)        (3in)        (6in)        (6in)        (6in)        (6in)        (6in)        (6in)        (6in)        (6in)        (6in) 
~ASCII
# ...
       2216.65800      6.12500   5536.12480   1317.30217      1.64195      1.60054      1.58227      1.56280      1.53860     -0.02089      8.26475      2.56509      6.20949      4.06114    897.53510   4106.10200      0.24989    170.45370
       2216.50560      6.12500   5594.85614   1300.62202      1.73793      1.69729      1.67856      1.65307      1.63363     -0.03949      8.19384      2.56524      6.20632      4.16930    914.11660   4169.10600      0.25191    167.08840
       2216.35320      6.12500   5600.57078   1304.43950      1.85006      1.80309      1.78273      1.75003      1.74087     -0.04000      7.27631      2.58904      6.20949      4.16721    960.38840   4201.91000      0.26494    158.87850
       2216.20080      6.12500   5534.49943   1310.64895      1.97727      1.92686      1.89832      1.85028      1.84712     -0.04791      7.10290      2.58748      6.20949      4.24857    964.78140   4407.21700      0.25384    150.77860
       2216.04840      6.12500   5549.71450   1280.71002      2.08814      2.03826      2.02345      1.96994      1.97107     -0.04869      6.68607      2.58981      6.21266      4.19793    973.22600   4695.27600      0.23104    148.58880
       2215.89600      6.12500   5513.12460   1272.99548      2.29153      2.22810      2.21294      2.13287      2.14376     -0.05244      6.61076      2.58537      6.21357      4.19655   1064.00200   4480.63100      0.25521    154.40540
       2215.74360      6.12500   5490.28626   1265.18606      2.56258      2.47223      2.44450      2.35926      2.35309     -0.05104      6.73935      2.57927      6.20632      3.94963    986.00480   4499.78400      0.24622    159.52010
       2215.59120      6.12500   5482.71469   1281.10613      2.74447      2.65544      2.63394      2.53889      2.51988     -0.05819      6.61479      2.56720      6.20949      3.95244   1138.80500   4582.87000      0.22913    158.94110
       2215.43880      6.12500   5471.37533   1269.51071      2.76927      2.68882      2.67272      2.57933      2.55249     -0.04684      6.93017      2.58451      6.27877      3.88814   1137.89900   4802.17000      0.21511    154.37530
       2215.28640      6.12500   5516.42929   1276.16371      2.75706      2.69371      2.66967      2.59031      2.53814     -0.04543      6.69372      2.58679      6.19499      4.05586   1054.34900   4591.99100      0.25218    150.13780
       2215.13400      6.12500   5508.85772   1285.28803      2.77640      2.72770      2.68878      2.62017      2.57238     -0.03372      6.96165      2.60465      6.20541      4.12915   1042.89200   4763.70100      0.25565    153.27350
       2214.98160      6.12500   5521.42904   1273.28076      2.82577      2.79054      2.74570      2.68452      2.62984     -0.02753      6.79450      2.60989      6.19499      4.01653   1100.74500   4906.79700      0.23554    156.10440
       2214.82920      6.12500   5517.12395   1273.61325      2.89588      2.85963      2.81212      2.73954      2.70152     -0.02719      7.06264      2.60175      6.20224      4.03794   1241.34000   4953.37600      0.23358    157.05660
       2214.67680      6.12500   5485.99915   1260.06964      2.96545      2.91938      2.87172      2.78589      2.76946     -0.03665      7.13194      2.58496      6.19815      3.94596   1112.25600   5157.71800      0.21951    155.79400
       2214.52440      6.12500   5471.85642   1263.52293      2.99998      2.96359      2.90866      2.81983      2.82744     -0.02820      7.23674      2.60286      6.19815      4.10496   1175.89400   4891.29300      0.25560    154.22520
       2214.37200      6.12500   5465.24928   1264.74274      3.07320      3.01812      2.96899      2.87260      2.87983     -0.03133      6.87947      2.60251      6.20541      4.08724   1106.32600   4984.65800      0.24789    151.49390
       2214.21960      6.12500   5451.00089   1252.59294      3.16126      3.05552      3.04196      2.94859      2.94599     -0.03944      6.22787      2.58343      6.20224      4.01791   1112.25600   5093.84800      0.22943    148.52300
       2214.06720      6.12500   5453.50077   1251.65819      3.34757      3.11429      3.11502      3.04057      3.02357     -0.03824      6.11101      2.58229      6.20224      3.79619   1245.56200   4901.23400      0.23480    145.68440
       2213.91480      6.12500   5437.14367   1265.07523      3.63348      3.43734      3.42488      3.34866      3.24785     -0.02720      6.33619      2.59866      6.21266      3.60240   1322.16300   5007.17000      0.22062    141.37160
       2213.76240      6.12500   5432.00004   1269.62177      4.00895      3.79764      3.78781      3.73363      3.63752     -0.03623      6.48121      2.59650      6.19815      3.52406   1374.34300   5431.05300      0.19211    132.75010
       2213.61000      6.12500   5486.42854   1274.64310      4.40529      4.40851      4.34842      4.27711      4.12644     -0.03835      6.06720      2.59705      6.19815      3.45241   1522.60900   5604.87300      0.18631    124.16270
       2213.45760      6.12500   5503.71409   1275.72039      4.67628      4.81598      4.73885      4.71434      4.50940     -0.03953      5.80404      2.59136      6.23442      3.37225   1638.24500   5823.81900      0.17876    118.16500
       2213.30520      6.12500   5514.74997   1276.67065      4.92232      4.90839      4.70023      4.66075      4.50201     -0.05435      5.61082      2.54757      6.20224      3.33608   1638.23000   6048.33500      0.16756    113.68370
       2213.15280      6.12500   5518.28621   1275.49850      5.25029      5.09687      5.04888      4.98094      4.86100     -0.06404      6.46243      2.51806      6.19499      3.32432   1681.65400   5993.21000      0.17814    107.47920
       2213.00040      6.12500   5486.14303   1273.16970      5.73122      5.57243      5.33303      5.24226      5.17754     -0.06610      6.32514      2.49725      6.19183      3.24858   1667.95100   5865.85000      0.18297    101.33110
       2212.84800      6.12500   5495.57151   1269.95426      6.19817      5.91029      5.72245      5.61850      5.61912     -0.06964      6.61128      2.47376      6.20541      3.15400   1768.51100   6095.28300      0.16684     99.19774
       2212.69560      6.12500   5475.37468   1270.17592      6.66514      6.39816      6.25976      6.09394      6.23011     -0.06488      5.92282      2.46501      6.20541      3.12027   1885.23200   6140.91500      0.16339    101.72990
       2212.54320      6.12500   5480.71389   1268.73445      7.52341      7.12966      7.09614      6.94997      7.10165     -0.03938      6.07407      2.48116      6.21266      3.12424   1868.34500   6366.39700      0.16326    103.00120
       2212.39080      6.12500   5486.50047   1273.50242      8.93464      8.17851      8.26667      8.34082      8.50737     -0.04022      5.79478      2.45548      6.21674      3.21566   1872.25500   6476.93300      0.16739     95.12783
       2212.23840      6.12500   5487.14343   1277.16164     10.64215     10.07346     10.28203     10.13903     10.23649     -0.03952      6.11190      2.42572      6.21266      3.12957   1885.43300   6700.09600      0.16246     83.04414
       2212.08600      6.12500   5499.50118   1281.26463     14.06920     12.69960     13.05911     12.78977     12.54911     -0.04507      5.93014      2.39461      6.20949      3.07643   2108.70300   6597.13700      0.17175     73.60300
       2211.93360      6.12500   5502.00105   1279.49043     17.82045     14.54756     14.57851     14.13460     13.47813     -0.04959      5.58482      2.39174      6.20224      2.91408   2151.23200   7071.62900      0.15606     70.25074
       2211.78120      6.12500   5488.12584   1283.38705     20.19094     15.42262     14.54085     13.73539     12.89491     -0.06405      5.69098      2.39942      6.21266      2.86894   2451.01700   7420.43500      0.13805     67.65589
       2211.62880      6.12500   5500.00025   1291.24434     17.06171     13.81693     12.53716     11.72172     10.73567     -0.06721      5.71601      2.42503      6.20224      2.85343   2748.35200   8196.24500      0.10355     66.62657
