~VERSION INFORMATION 
VERS  .    2.0                                     :CWLS Log ASCII Standard - VERSION 2.0
WRAP  .    NO                                      :One Line per Depth step
PROD  .    Schlumberger Technology Corp.           :LAS Producer
PROG  .    Horizon LASWriter 6.2.68624.3100        :LAS Program name and version
SOURCE.    AT-33-F section 6.125" Run 1/1/1-Log[3]/Up:Run&Pass Information
CREA  .    07/28/2016                              :LAS Creation date {MM/DD/YYYY}
#--------------------------------------------------
~WELL INFORMATION 
#MNEM           .UNIT                      DATA            :DESCRIPTION
#----            ------          --------------            -----------------------------
STRT            .m                   3247.79640            :START DEPTH
STOP            .m                   1513.78920            :STOP DEPTH
STEP            .m                      -0.1524            :STEP
NULL            .                       -999.25            :NULL VALUE
COMP            .                         PTTEP            :COMPANY
WELL            .                       AT-33-F            :WELL NAME
FLD             .                ARTHIT / Block: 15A       :FIELD NAME
RIGN            .                          T-17            :Rig Name
RIGTYP          .                Tender Assisted           :Rig Type
SON             .                    DGEY-00011            :Service Order Number
SRVC            .                  Schlumberger            :SERVICE COMPANY
DATE            .                    07/28/2016            :LOG DATE(Composite Date for Composite LAP) (MM/DD/YYYY)
CLAB            .                     Rig Name:            :County Label
CNTY            .                          T-17            :COUNTY
SLAB            .                      Country:            :State/Province Label
STAT            .                      Thailand            :STATE or PROVINCE
PROV            .                      Thailand            :STATE or PROVINCE
CTRY            .                      Thailand            :COUNTRY
CONT_REGION     .                          Asia            :Continent Region
SECT            .                                          :Section
TOWN            .                                          :Township
RANG            .                                          :Range
API             .                                          :API NUMBER
UWI             .                                          :UNIQUE WELL ID
LUL             .                      Thailand            :Logging Unit Location
LUN             .                          7003            :Logging Unit Number
LOC             .                Gulf of Thailand          :FIELD LOCATION
FL1             .                X: 890 685.860 mE (DATUM: INDIAN 1975):Field Location Line 1
FL2             .                Y: 893 515.640 mN (UTM ZONE 47N):Field Location Line 2
LATI            .deg             8° 4' 7.168" N            :LATITUDE
LONG            .deg             102° 32' 38.971" E        :LONGITUDE
PDAT            .                           MSL            :Local Permanent Datum
LMF             .                            DF            :Logging Measured From
APD             .m                     29.00000            :Elevation of Depth Reference (LMF) Above Permanent Datum
EPD             .m                      0.00000            :Elevation of Permanent Datum (PDAT) above Mean Sea Level
EKB             .m                     29.00000            :Elevation of Kelly Bushing Above Permanent Datum
EDF             .m                     29.00000            :Elevation of Drill Floor Above Permanent Datum
EGL             .m                    -77.08000            :Elevation of Ground Level Above Permanent Datum
ECF             .m                      -999.25            :Elevation of Casing Flange above Permanent Datum
#--------------------------------------------------
~CURVE INFORMATION
#MNEM           .UNIT                  API CODE            :DESCRIPTION
#----            ------          --------------            -----------------------------
DEPT            .m                                         :                                                        Depth Index
BS              .in                                        :(RT)    (Borehole)              (6in)                   Bit Size
TENS            .lbf                                       :        (WLWorkflow)            (6in)                   Cable Tension
HTEN            .lbf                                       :        (LEH-QT)                (6in)                   Head Tension
AT10            .ohm.m                                     :        (QAIT-A)                (3in)                   Array Induction Two Foot Resistivity A10
AT20            .ohm.m                                     :        (QAIT-A)                (3in)                   Array Induction Two Foot Resistivity A20
AT30            .ohm.m                                     :        (QAIT-A)                (3in)                   Array Induction Two Foot Resistivity A30
AT60            .ohm.m                                     :        (QAIT-A)                (3in)                   Array Induction Two Foot Resistivity A60
AT90            .ohm.m                                     :        (QAIT-A)                (3in)                   Array Induction Two Foot Resistivity A90
DRHOLS          .g/cm3                                     :        (QLDT-B)                (6in)                   Density Correction Long Spacing
PEF             .                                          :        (QLDT-B)                (6in)                   Photoelectric Factor
RHOB            .g/cm3                                     :        (QLDT-B)                (6in)                   Bulk Density
CALI            .in                                        :        (QLDT-B)                (6in)                   Caliper
TNRA            .                                          :        (QCNT)                  (6in)                   Thermal Neutron Ratio
CFTC            .1/s                                       :        (QCNT)                  (6in)                   Corrected Far Thermal Count Rate
CNTC            .1/s                                       :        (QCNT)                  (6in)                   Corrected Near Thermal Count Rate
NPOR            .m3/m3                                     :        (QCNT)                  (6in)                   Enhanced Thermal Neutron Porosity in Selected Lithology
GR              .gAPI                                      :        (QTGC-B)                (6in)                   Gamma Ray
#-------------------------------------------------------------
#            DEPT           BS         TENS         HTEN         AT10         AT20         AT30         AT60         AT90       DRHOLS          PEF         RHOB         CALI         TNRA         CFTC         CNTC         NPOR           GR 
#                   (Borehole)  (WLWorkflo)     (LEH-QT)     (QAIT-A)     (QAIT-A)     (QAIT-A)     (QAIT-A)     (QAIT-A)     (QLDT-B)     (QLDT-B)     (QLDT-B)     (QLDT-B)       (QCNT)       (QCNT)       (QCNT)       (QCNT)     (QTGC-B) 
#                         (RT)                                                                                                                                                                                                                 
#                        (6in)        (6in)        (6in)        (3in)        (3in)        (3in)        (3in)        (3in)        (6in)        (6in)        (6in)        (6in)        (6in)        (6in)        (6in)        (6in)        (6in) 
~ASCII
# ...
       3009.44280      6.12500   7020.87546   1389.70999     15.50053     13.75371     13.52854     12.91201     11.30846     -0.06673      6.31484      2.59127      6.22081      1.99054   4811.53200  10203.75000      0.05954     85.37183
       3009.29040      6.12500   7050.28497   1383.05699      9.08155      8.25157      7.95443      7.84320      7.45188     -0.05422      5.95219      2.60372      6.22081      2.20772   3645.94100   8508.88000      0.10682    101.38680
       3009.13800      6.12500   7059.57183   1390.59708      6.64712      6.36239      6.12541      6.08557      5.86734     -0.04482      5.72235      2.61627      6.22081      2.44588   2850.05300   7694.50600      0.14255    108.10010
       3008.98560      6.12500   7029.12595   1373.52082      6.37497      6.19236      5.84897      5.89984      5.68616     -0.04102      5.77103      2.61875      6.22081      2.80376   2529.16700   7315.48900      0.15695    110.87920
       3008.83320      6.12500   7029.57107   1364.65008      5.92892      5.66775      5.44056      5.41198      5.33916     -0.03873      6.08396      2.62717      6.22806      2.99401   2183.53300   7628.27600      0.14336    117.61940
       3008.68080      6.12500   7042.12441   1373.10897      5.40785      5.15162      4.96937      4.92440      4.86843     -0.01208      6.50497      2.67933      6.22081      3.11509   2079.46500   6896.07600      0.17700    123.95250
       3008.52840      6.12500   6983.71455   1374.85124      5.35187      5.10051      5.02063      4.96873      4.97216     -0.00408      7.13012      2.70684      6.22081      3.07657   1952.81600   6414.68700      0.19580    129.58650
       3008.37600      6.12500   6998.62612   1372.41184      5.53863      5.24343      5.16618      5.08917      5.11063      0.00623      8.18714      2.74251      6.22081      3.11770   1921.13600   6471.77700      0.18276    132.63160
       3008.22360      6.12500   7027.99966   1372.30101      5.63799      5.34192      5.33688      5.28528      5.34301      0.00668      8.39871      2.75241      6.22081      3.12537   1868.37200   6445.06700      0.17323    137.53960
       3008.07120      6.12500   7027.14314   1378.55789      5.77963      5.45289      5.50047      5.42535      5.38586      0.00511      8.51442      2.75023      6.21357      3.00337   1955.09200   6470.73000      0.17257    143.81600
       3007.91880      6.12500   7004.87581   1381.06091      5.96060      5.59547      5.52196      5.50310      5.40544     -0.01059      7.47562      2.71231      6.22806      2.87282   2128.02400   6327.39600      0.17189    153.71900
       3007.76640      6.12500   7026.14274   1393.92336      6.15183      5.78967      5.85186      5.81978      5.64437     -0.02900      7.28967      2.68084      6.22806      2.86165   2316.23200   7010.08400      0.14653    165.47340
       3007.61400      6.12500   7048.74953   1400.57658      6.66257      6.13294      6.13611      6.11705      5.83874     -0.05095      5.88310      2.64641      6.22806      2.85098   2223.02900   7277.04200      0.13386    170.56130
       3007.46160      6.12500   7042.14239   1398.96087      6.74008      6.14433      6.07279      6.02044      5.72997     -0.05889      5.64072      2.63094      6.24979      2.74902   2484.82700   7302.44000      0.13621    169.26670
       3007.30920      6.12500   7068.37535   1405.01228      6.76356      6.34260      6.17850      6.14253      5.68852     -0.06854      5.28868      2.60616      6.22806      2.61061   2666.08200   7188.02100      0.13336    172.09740
       3007.15680      6.12500   7063.57118   1398.35884      6.20991      5.87757      5.63500      5.43619      5.25683     -0.06609      5.25537      2.60871      6.23530      2.63902   2622.03600   7407.05700      0.12325    180.89160
       3007.00440      6.12500   7072.87377   1388.37934      5.02641      4.81433      4.59862      4.45817      4.45473     -0.05044      5.71798      2.62121      6.23530      2.81211   2457.38200   7448.07300      0.12476    182.19820
       3006.85200      6.12500   7039.99996   1381.61529      3.96368      3.86212      3.70496      3.66391      3.66735     -0.03807      6.72638      2.62064      6.23530      3.12243   2166.02900   7054.77800      0.14785    173.41890
       3006.69960      6.12500   7058.24995   1381.39363      3.27592      3.14426      3.06928      3.01615      3.02070     -0.03549      7.68629      2.60831      6.23530      3.29248   1655.14600   6340.08900      0.19264    164.44060
       3006.54720      6.12500   7023.85643   1358.88396      2.91071      2.73912      2.68844      2.67090      2.68299     -0.02841      7.79315      2.60322      6.23530      3.60571   1480.04800   5301.47000      0.26447    162.34680
       3006.39480      6.12500   7022.75037   1356.88788      2.83904      2.70678      2.67761      2.65730      2.68031     -0.01711      8.86742      2.61030      6.23530      3.55070   1273.01300   5438.38800      0.23730    164.82530
       3006.24240      6.12500   6994.99996   1367.08949      3.09106      3.00066      2.97798      2.97948      3.01893     -0.03085      8.44563      2.59540      6.23530      3.73276   1442.82400   5269.57600      0.24144    170.90300
       3006.09000      6.12500   6968.12629   1374.74041      3.38341      3.34534      3.32702      3.27244      3.24776     -0.03175      8.02941      2.60431      6.22081      3.58294   1336.36100   5575.22200      0.21959    171.50540
       3005.93760      6.12500   7001.14174   1385.60700      3.63102      3.63336      3.62598      3.59009      3.55668     -0.01716      7.70637      2.64911      6.21357      3.69647   1482.02200   5611.76200      0.22497    167.12150
       3005.78520      6.12500   7029.49914   1392.48211      3.92190      3.81575      3.82344      3.75636      3.63865     -0.00800      8.19076      2.68202      6.22081      3.55933   1454.58700   5847.64200      0.21090    161.21040
       3005.63280      6.12500   7054.42820   1382.23307      4.17549      4.00028      3.98210      3.90588      3.80392     -0.01809      8.71571      2.67086      6.22081      3.52796   1551.38400   5782.84700      0.20827    157.31870
       3005.48040      6.12500   7127.00102   1379.73027      4.38633      4.24578      4.19139      4.08233      3.99862     -0.01521      8.40415      2.66976      6.22081      3.37249   1610.81200   5935.69400      0.19219    152.13880
       3005.32800      6.12500   7070.42785   1383.50054      4.62141      4.55770      4.44477      4.28671      4.21320     -0.03737      7.92806      2.64527      6.22081      3.27653   1629.81200   5730.93600      0.19373    143.10740
       3005.17560      6.12500   7067.42890   1388.82289      4.69012      4.64531      4.52396      4.35272      4.27813     -0.03114      7.49864      2.67155      6.22081      3.28270   1693.91200   5787.41200      0.19570    141.23920
       3005.02320      6.12500   7036.74922   1375.96022      4.51072      4.35152      4.29488      4.07379      3.99538     -0.02789      6.98208      2.69176      6.22806      3.35093   1585.47800   5874.05000      0.19270    145.92180
       3004.87080      6.12500   6998.14278   1360.54732      4.28610      3.98157      3.93669      3.86254      3.76743     -0.03252      7.52247      2.69779      6.22081      3.41163   1587.57200   5933.40700      0.19475    152.07190
       3004.71840      6.12500   6998.87566   1354.98690      3.81336      3.63058      3.59216      3.59442      3.45544     -0.03872      8.12586      2.69447      6.22081      3.27318   1625.58900   5873.70800      0.19152    159.13990
       3004.56600      6.12500   6994.57057   1355.77912      3.81154      3.72311      3.68249      3.70974      3.57150     -0.02077      8.22774      2.70501      6.22081      3.22110   1766.11100   5750.91300      0.19924    165.07950
       3004.41360      6.12500   6960.42884   1359.88189      4.16468      4.09675      4.09078      4.07916      3.98573     -0.02892      7.96792      2.68856      6.22081      3.14341   1695.25700   6049.75300      0.18081    168.36190
