~VERSION INFORMATION 
VERS  .    2.0                                     :CWLS Log ASCII Standard - VERSION 2.0
WRAP  .    NO                                      :One Line per Depth step
PROD  .    Schlumberger Technology Corp.           :LAS Producer
PROG  .    Horizon LASWriter 6.2.68624.3100        :LAS Program name and version
SOURCE.    AT-33-F section 6.125" Run 1/1/1-Log[3]/Up:Run&Pass Information
CREA  .    07/28/2016                              :LAS Creation date {MM/DD/YYYY}
#--------------------------------------------------
~WELL INFORMATION 
#MNEM           .UNIT                      DATA            :DESCRIPTION
#----            ------          --------------            -----------------------------
STRT            .m                   3247.79640            :START DEPTH
STOP            .m                   1513.78920            :STOP DEPTH
STEP            .m                      -0.1524            :STEP
NULL            .                       -999.25            :NULL VALUE
COMP            .                         PTTEP            :COMPANY
WELL            .                       AT-33-F            :WELL NAME
FLD             .                ARTHIT / Block: 15A       :FIELD NAME
RIGN            .                          T-17            :Rig Name
RIGTYP          .                Tender Assisted           :Rig Type
SON             .                    DGEY-00011            :Service Order Number
SRVC            .                  Schlumberger            :SERVICE COMPANY
DATE            .                    07/28/2016            :LOG DATE(Composite Date for Composite LAP) (MM/DD/YYYY)
CLAB            .                     Rig Name:            :County Label
CNTY            .                          T-17            :COUNTY
SLAB            .                      Country:            :State/Province Label
STAT            .                      Thailand            :STATE or PROVINCE
PROV            .                      Thailand            :STATE or PROVINCE
CTRY            .                      Thailand            :COUNTRY
CONT_REGION     .                          Asia            :Continent Region
SECT            .                                          :Section
TOWN            .                                          :Township
RANG            .                                          :Range
API             .                                          :API NUMBER
UWI             .                                          :UNIQUE WELL ID
LUL             .                      Thailand            :Logging Unit Location
LUN             .                          7003            :Logging Unit Number
LOC             .                Gulf of Thailand          :FIELD LOCATION
FL1             .                X: 890 685.860 mE (DATUM: INDIAN 1975):Field Location Line 1
FL2             .                Y: 893 515.640 mN (UTM ZONE 47N):Field Location Line 2
LATI            .deg             8° 4' 7.168" N            :LATITUDE
LONG            .deg             102° 32' 38.971" E        :LONGITUDE
PDAT            .                           MSL            :Local Permanent Datum
LMF             .                            DF            :Logging Measured From
APD             .m                     29.00000            :Elevation of Depth Reference (LMF) Above Permanent Datum
EPD             .m                      0.00000            :Elevation of Permanent Datum (PDAT) above Mean Sea Level
EKB             .m                     29.00000            :Elevation of Kelly Bushing Above Permanent Datum
EDF             .m                     29.00000            :Elevation of Drill Floor Above Permanent Datum
EGL             .m                    -77.08000            :Elevation of Ground Level Above Permanent Datum
ECF             .m                      -999.25            :Elevation of Casing Flange above Permanent Datum
#--------------------------------------------------
~CURVE INFORMATION
#MNEM           .UNIT                  API CODE            :DESCRIPTION
#----            ------          --------------            -----------------------------
DEPT            .m                                         :                                                        Depth Index
BS              .in                                        :(RT)    (Borehole)              (6in)                   Bit Size
TENS            .lbf                                       :        (WLWorkflow)            (6in)                   Cable Tension
HTEN            .lbf                                       :        (LEH-QT)                (6in)                   Head Tension
AT10            .ohm.m                                     :        (QAIT-A)                (3in)                   Array Induction Two Foot Resistivity A10
AT20            .ohm.m                                     :        (QAIT-A)                (3in)                   Array Induction Two Foot Resistivity A20
AT30            .ohm.m                                     :        (QAIT-A)                (3in)                   Array Induction Two Foot Resistivity A30
AT60            .ohm.m                                     :        (QAIT-A)                (3in)                   Array Induction Two Foot Resistivity A60
AT90            .ohm.m                                     :        (QAIT-A)                (3in)                   Array Induction Two Foot Resistivity A90
DRHOLS          .g/cm3                                     :        (QLDT-B)                (6in)                   Density Correction Long Spacing
PEF             .                                          :        (QLDT-B)                (6in)                   Photoelectric Factor
RHOB            .g/cm3                                     :        (QLDT-B)                (6in)                   Bulk Density
CALI            .in                                        :        (QLDT-B)                (6in)                   Caliper
TNRA            .                                          :        (QCNT)                  (6in)                   Thermal Neutron Ratio
CFTC            .1/s                                       :        (QCNT)                  (6in)                   Corrected Far Thermal Count Rate
CNTC            .1/s                                       :        (QCNT)                  (6in)                   Corrected Near Thermal Count Rate
NPOR            .m3/m3                                     :        (QCNT)                  (6in)                   Enhanced Thermal Neutron Porosity in Selected Lithology
GR              .gAPI                                      :        (QTGC-B)                (6in)                   Gamma Ray
#-------------------------------------------------------------
#            DEPT           BS         TENS         HTEN         AT10         AT20         AT30         AT60         AT90       DRHOLS          PEF         RHOB         CALI         TNRA         CFTC         CNTC         NPOR           GR 
#                   (Borehole)  (WLWorkflo)     (LEH-QT)     (QAIT-A)     (QAIT-A)     (QAIT-A)     (QAIT-A)     (QAIT-A)     (QLDT-B)     (QLDT-B)     (QLDT-B)     (QLDT-B)       (QCNT)       (QCNT)       (QCNT)       (QCNT)     (QTGC-B) 
#                         (RT)                                                                                                                                                                                                                 
#                        (6in)        (6in)        (6in)        (3in)        (3in)        (3in)        (3in)        (3in)        (6in)        (6in)        (6in)        (6in)        (6in)        (6in)        (6in)        (6in)        (6in) 
~ASCII
# ...
       2895.44760      6.12500   6739.00102   1318.85448      6.51469      6.19164      5.95154      5.85304      5.72247     -0.05099      6.08607      2.61927      6.22081      2.72549   2634.70300   7249.65800      0.13857    161.48030
       2895.29520      6.12500   6746.75018   1324.50955      5.94859      5.67898      5.55541      5.46297      5.39817     -0.04987      6.25736      2.60271      6.22081      2.77091   2581.93900   7636.09900      0.12038    173.73200
       2895.14280      6.12500   6738.25016   1333.49134      5.21899      4.85937      4.74332      4.66904      4.59136     -0.05135      6.39253      2.59588      6.23213      2.96180   2193.16700   7172.09600      0.13977    180.53200
       2894.99040      6.12500   6761.14245   1343.24895      4.64143      4.49257      4.43088      4.37756      4.31298     -0.06661      6.04811      2.57074      6.22171      3.09440   1938.03700   6531.60400      0.18224    177.60520
       2894.83800      6.12500   6800.25022   1351.67636      4.94312      4.73398      4.67677      4.61329      4.51727     -0.05656      6.12495      2.59705      6.21448      3.14990   1767.18900   5985.83300      0.20509    170.21750
       2894.68560      6.12500   6843.12578   1356.33373      5.47034      5.24805      5.21270      5.11962      4.98531     -0.06148      6.40011      2.59680      6.22895      3.17733   1750.13700   6038.00900      0.20100    164.16490
       2894.53320      6.12500   6826.28534   1352.12013      6.16736      5.77514      5.64157      5.49313      5.36638     -0.05639      6.13569      2.61528      6.22895      3.17810   1795.08200   6209.39300      0.18811    159.33610
       2894.38080      6.12500   6847.50056   1356.76131      6.73317      6.32098      6.18448      5.96362      5.83864     -0.04014      6.79993      2.64746      6.21448      3.10887   1971.80400   6683.87000      0.16853    154.39910
       2894.22840      6.12500   6844.28579   1364.65008      6.91571      6.50936      6.36815      6.07411      5.93106     -0.03602      6.18941      2.66153      6.22895      3.00306   2138.58400   6898.35900      0.15870    150.54240
       2894.07600      6.12500   6793.37556   1371.85746      6.90082      6.45619      6.27272      6.02869      5.91267     -0.02650      5.94390      2.68269      6.22895      2.86297   2299.34600   7165.25300      0.14216    152.22890
       2893.92360      6.12500   6772.62569   1349.90217      6.67084      6.30708      6.09196      5.86716      5.79671     -0.03403      5.45034      2.66837      6.22895      2.87609   2505.93800   7356.82300      0.13327    158.61070
       2893.77120      6.12500   6813.71402   1344.13627      6.23510      5.84229      5.65374      5.46940      5.38502     -0.03697      5.93038      2.65140      6.21448      2.84700   2201.91700   7196.30400      0.13740    161.57160
       2893.61880      6.12500   6782.62519   1361.32336      5.55936      5.16948      5.01837      4.87773      4.80987     -0.05341      6.17204      2.62142      6.22895      3.01499   2222.36300   6715.86100      0.16773    157.57090
       2893.46640      6.12500   6766.62554   1362.09963      4.87488      4.52577      4.44233      4.34334      4.30610     -0.04403      6.50664      2.62865      6.22895      3.05595   1893.70600   6590.34400      0.16521    152.74490
       2893.31400      6.12500   6780.14330   1346.35401      4.73203      4.50681      4.38625      4.30722      4.20396     -0.04962      6.66713      2.61682      6.22895      3.20100   1853.57700   6303.87700      0.18314    154.04380
       2893.16160      6.12500   6802.85800   1347.00371      4.85324      4.66803      4.54290      4.41987      4.36496     -0.03922      7.12373      2.63863      6.22171      3.23110   1708.20400   5965.02300      0.20490    157.20020
       2893.00920      6.12500   6785.62415   1369.75077      4.90239      4.72413      4.57208      4.45479      4.38544     -0.05517      6.61291      2.62884      6.22895      3.29641   1686.51200   6033.78100      0.20295    160.59190
       2892.85680      6.12500   6777.28598   1366.09156      4.72854      4.50998      4.41672      4.31501      4.26232     -0.04759      6.49358      2.64533      6.22895      3.37908   1764.92300   6375.91800      0.18014    163.36000
       2892.70440      6.12500   6803.62460   1357.22060      4.50187      4.25134      4.17683      4.07922      4.02767     -0.06569      6.32919      2.62030      6.22895      3.32407   1701.57900   6397.73600      0.17047    164.61680
       2892.55200      6.12500   6808.87614   1359.21668      4.22001      4.04099      3.93282      3.83859      3.79043     -0.05730      7.05251      2.63718      6.22171      3.30821   1751.63900   5954.52900      0.19245    164.49660
       2892.39960      6.12500   6812.85750   1365.64801      4.62106      4.41751      4.28687      4.17399      4.09985     -0.05418      7.26223      2.64394      6.22171      3.19952   1604.62600   5714.36500      0.20366    160.59950
       2892.24720      6.12500   6782.00023   1349.23696      5.31766      5.13503      4.99538      4.80322      4.72928     -0.03887      7.71397      2.66964      6.22171      3.23206   1648.79900   5618.56600      0.20882    154.64790
       2892.09480      6.12500   6793.85665   1353.00700      5.88231      5.60424      5.44250      5.27843      5.12857     -0.04987      7.01624      2.65440      6.22895      3.26874   1760.69300   6170.96600      0.18156    149.49740
       2891.94240      6.12500   6771.62529   1359.99294      5.99925      5.71717      5.57726      5.40734      5.24334     -0.03313      6.67782      2.68164      6.22895      3.23862   1746.82500   6428.38800      0.17022    146.91960
       2891.79000      6.12500   6787.75084   1356.22290      5.98824      5.72019      5.61164      5.46115      5.27596     -0.04254      6.54504      2.65641      6.23213      3.23160   1933.80400   6401.00000      0.17910    149.98630
       2891.63760      6.12500   6817.14236   1345.86280      6.05684      5.75099      5.64581      5.49724      5.34424     -0.04234      6.61681      2.65175      6.24255      3.09261   1885.24700   6564.64100      0.16553    151.93280
       2891.48520      6.12500   6829.25057   1337.92682      6.20427      5.87973      5.77114      5.62940      5.47641     -0.04828      6.49768      2.64927      6.24255      3.01231   1978.44800   6389.65100      0.17611    149.49870
       2891.33280      6.12500   6795.99908   1334.48927      6.67347      6.24604      6.07430      5.93802      5.80303     -0.03830      5.65622      2.66075      6.23937      2.89775   2125.93600   6483.77200      0.17019    142.09390
       2891.18040      6.12500   6788.37581   1340.03350      7.33874      6.77026      6.50821      6.34778      6.22995     -0.04960      5.73329      2.63809      6.23213      2.78131   2288.72700   7119.95800      0.13286    134.50880
       2891.02800      6.12500   6750.85744   1333.26945      7.33684      6.83061      6.51537      6.34286      6.24158     -0.06507      5.92553      2.61157      6.24255      2.75977   2586.46700   7377.35400      0.11523    132.17240
       2890.87560      6.12500   6770.75079   1322.41882      6.63689      6.22731      5.92680      5.74181      5.72640     -0.07819      6.91457      2.60292      6.23530      2.69390   2467.91800   7354.54000      0.11307    135.35650
       2890.72320      6.12500   6729.57253   1322.29203      5.73858      5.54109      5.30162      5.13419      5.13708     -0.06630      7.10920      2.61593      6.23937      2.77970   2286.36400   6624.54600      0.14843    140.43960
       2890.57080      6.12500   6736.24936   1324.84227      5.12693      4.95685      4.80897      4.72472      4.70656     -0.06902      7.18973      2.60902      6.23213      2.92509   2002.55900   6268.69000      0.16815    147.66780
       2890.41840      6.12500   6740.85794   1325.17498      4.65472      4.52782      4.36114      4.32351      4.29586     -0.05960      7.08004      2.60698      6.22171      3.19141   1819.80200   6280.48100      0.17103    158.11500
