~VERSION INFORMATION 
VERS  .    2.0                                     :CWLS Log ASCII Standard - VERSION 2.0
WRAP  .    NO                                      :One Line per Depth step
PROD  .    Schlumberger Technology Corp.           :LAS Producer
PROG  .    Horizon LASWriter 6.2.68624.3100        :LAS Program name and version
SOURCE.    AT-33-F section 6.125" Run 1/1/1-Log[2]/Down:Run&Pass Information
CREA  .    07/28/2016                              :LAS Creation date {MM/DD/YYYY}
#--------------------------------------------------
~WELL INFORMATION 
#MNEM           .UNIT                      DATA            :DESCRIPTION
#----            ------          --------------            -----------------------------
STRT            .m                   1518.36120            :START DEPTH
STOP            .m                   3242.61480            :STOP DEPTH
STEP            .m                       0.1524            :STEP
NULL            .                       -999.25            :NULL VALUE
COMP            .                         PTTEP            :COMPANY
WELL            .                       AT-33-F            :WELL NAME
FLD             .                ARTHIT / Block: 15A       :FIELD NAME
RIGN            .                          T-17            :Rig Name
RIGTYP          .                Tender Assisted           :Rig Type
SON             .                    DGEY-00011            :Service Order Number
SRVC            .                  Schlumberger            :SERVICE COMPANY
DATE            .                    07/28/2016            :LOG DATE(Composite Date for Composite LAP) (MM/DD/YYYY)
CLAB            .                     Rig Name:            :County Label
CNTY            .                          T-17            :COUNTY
SLAB            .                      Country:            :State/Province Label
STAT            .                      Thailand            :STATE or PROVINCE
PROV            .                      Thailand            :STATE or PROVINCE
CTRY            .                      Thailand            :COUNTRY
CONT_REGION     .                          Asia            :Continent Region
SECT            .                                          :Section
TOWN            .                                          :Township
RANG            .                                          :Range
API             .                                          :API NUMBER
UWI             .                                          :UNIQUE WELL ID
LUL             .                      Thailand            :Logging Unit Location
LUN             .                          7003            :Logging Unit Number
LOC             .                Gulf of Thailand          :FIELD LOCATION
FL1             .                X: 890 685.860 mE (DATUM: INDIAN 1975):Field Location Line 1
FL2             .                Y: 893 515.640 mN (UTM ZONE 47N):Field Location Line 2
LATI            .deg             8° 4' 7.168" N            :LATITUDE
LONG            .deg             102° 32' 38.971" E        :LONGITUDE
PDAT            .                           MSL            :Local Permanent Datum
LMF             .                            DF            :Logging Measured From
APD             .m                     29.00000            :Elevation of Depth Reference (LMF) Above Permanent Datum
EPD             .m                      0.00000            :Elevation of Permanent Datum (PDAT) above Mean Sea Level
EKB             .m                     29.00000            :Elevation of Kelly Bushing Above Permanent Datum
EDF             .m                     29.00000            :Elevation of Drill Floor Above Permanent Datum
EGL             .m                    -77.08000            :Elevation of Ground Level Above Permanent Datum
ECF             .m                      -999.25            :Elevation of Casing Flange above Permanent Datum
#--------------------------------------------------
~CURVE INFORMATION
#MNEM           .UNIT                  API CODE            :DESCRIPTION
#----            ------          --------------            -----------------------------
DEPT            .m                                         :                                                        Depth Index
BS              .in                                        :(RT)    (Borehole)              (6in)                   Bit Size
TENS            .lbf                                       :        (WLWorkflow)            (6in)                   Cable Tension
HTEN            .lbf                                       :        (LEH-QT)                (6in)                   Head Tension
AT10            .ohm.m                                     :        (QAIT-A)                (3in)                   Array Induction Two Foot Resistivity A10
AT20            .ohm.m                                     :        (QAIT-A)                (3in)                   Array Induction Two Foot Resistivity A20
AT30            .ohm.m                                     :        (QAIT-A)                (3in)                   Array Induction Two Foot Resistivity A30
AT60            .ohm.m                                     :        (QAIT-A)                (3in)                   Array Induction Two Foot Resistivity A60
AT90            .ohm.m                                     :        (QAIT-A)                (3in)                   Array Induction Two Foot Resistivity A90
DRHOLS          .g/cm3                                     :        (QLDT-B)                (6in)                   Density Correction Long Spacing
PEF             .                                          :        (QLDT-B)                (6in)                   Photoelectric Factor
RHOB            .g/cm3                                     :        (QLDT-B)                (6in)                   Bulk Density
CALI            .in                                        :        (QLDT-B)                (6in)                   Caliper
TNRA            .                                          :        (QCNT)                  (6in)                   Thermal Neutron Ratio
CFTC            .1/s                                       :        (QCNT)                  (6in)                   Corrected Far Thermal Count Rate
CNTC            .1/s                                       :        (QCNT)                  (6in)                   Corrected Near Thermal Count Rate
NPOR            .m3/m3                                     :        (QCNT)                  (6in)                   Enhanced Thermal Neutron Porosity in Selected Lithology
GR              .gAPI                                      :        (QTGC-B)                (6in)                   Gamma Ray
#-------------------------------------------------------------
#            DEPT           BS         TENS         HTEN         AT10         AT20         AT30         AT60         AT90       DRHOLS          PEF         RHOB         CALI         TNRA         CFTC         CNTC         NPOR           GR 
#                   (Borehole)  (WLWorkflo)     (LEH-QT)     (QAIT-A)     (QAIT-A)     (QAIT-A)     (QAIT-A)     (QAIT-A)     (QLDT-B)     (QLDT-B)     (QLDT-B)     (QLDT-B)       (QCNT)       (QCNT)       (QCNT)       (QCNT)     (QTGC-B) 
#                         (RT)                                                                                                                                                                                                                 
#                        (6in)        (6in)        (6in)        (3in)        (3in)        (3in)        (3in)        (3in)        (6in)        (6in)        (6in)        (6in)        (6in)        (6in)        (6in)        (6in)        (6in) 
~ASCII
# ...
       1761.89640      6.12500   1825.66668   1057.27713      3.32134      3.24105      3.25611      3.19009      3.34768      0.01952      7.68192      2.38644      6.22895      4.02505    979.39320   4571.62500      0.22512    121.31840
       1762.04880      6.12500   1823.74996   1069.03082      2.87905      2.74273      2.72989      2.70984      2.80488      0.02189      7.99839      2.41194      6.28684      3.90693   1152.71700   4534.13200      0.23673    123.31570
       1762.20120      6.12500   1818.74999   1081.44994      2.62565      2.56800      2.49516      2.43493      2.53194      0.02734      8.45988      2.46481      6.22081      3.73986   1093.58500   4439.32600      0.22887    127.45910
       1762.35360      6.12500   1826.00007   1079.89763      2.91107      2.81537      2.74556      2.73239      2.84560      0.03962      7.49436      2.51190      6.22081      3.70972   1211.81300   5000.43000      0.19980    131.43030
       1762.50600      6.12500   1841.74996   1067.70018      3.58424      3.47690      3.39370      3.34498      3.40452      0.01732      5.59928      2.48601      6.22895      3.76856   1313.14700   5036.94000      0.20173    129.28900
       1762.65840      6.12500   1853.25007   1068.36561      4.31081      4.15235      3.98247      3.89431      3.84448      0.00951      4.57321      2.45964      6.21448      3.67706   1266.71900   5383.67300      0.18835    121.31720
       1762.81080      6.12500   1858.50003   1083.88934      4.61329      4.47615      4.23100      4.07540      3.90020     -0.00894      4.28288      2.40032      6.21448      3.72455   1380.70400   5287.94900      0.19808    106.87590
       1762.96320      6.12500   1839.66666   1074.79672      4.77630      4.49380      4.34248      4.10388      3.87306     -0.02747      4.92168      2.34523      6.24342      3.75269   1317.39000   5255.92500      0.20580     92.89652
       1763.11560      6.12500   1845.00003   1075.68404      4.61800      4.28146      4.14308      3.91137      3.77983     -0.04042      5.75625      2.33508      6.22895      3.91266   1199.14400   5205.83000      0.21231     84.44218
       1763.26800      6.12500   1850.50020   1075.24027      4.09569      3.76603      3.67450      3.51342      3.48393     -0.01044      6.38858      2.38897      6.22895      3.84800   1165.36800   5067.35000      0.21807     85.14373
       1763.42040      6.12500   1828.66676   1079.89763      3.73787      3.42553      3.33714      3.20541      3.21465      0.00518      7.36382      2.44231      6.22895      3.86061   1262.47800   4772.32000      0.24272     94.64008
       1763.57280      6.12500   1826.00007   1073.90962      3.52748      3.25177      3.18684      3.09030      3.10124      0.02459      8.04929      2.49623      6.21448      3.88818   1140.05000   4995.86700      0.22172    107.47020
       1763.72520      6.12500   1828.99992   1070.95271      3.52354      3.26678      3.20157      3.10560      3.12113      0.01385      7.29139      2.48741      6.21448      4.07760   1186.47600   5265.14100      0.21876    115.69150
       1763.87760      6.12500   1836.25001   1075.01861      3.62068      3.40354      3.34310      3.22447      3.23106      0.00985      6.46323      2.47612      6.21448      3.96334   1144.25600   5027.80400      0.22877    114.86820
       1764.03000      6.12500   1839.66666   1082.33704      3.75897      3.56601      3.49135      3.36480      3.36484      0.00240      4.92182      2.46486      6.22895      3.81477   1279.38700   5132.75100      0.21968    106.42000
       1764.18240      6.12500   1850.00000   1082.11515      3.96357      3.75982      3.66146      3.51368      3.51156     -0.02165      4.42341      2.43421      6.22895      3.84522   1296.26000   5128.25200      0.21087     98.74316
       1764.33480      6.12500   1849.25004   1076.79280      4.23862      4.03880      3.92056      3.77445      3.74425     -0.03821      4.85748      2.40882      6.21448      3.82283   1178.03100   5292.43800      0.21324     94.34768
       1764.48720      6.12500   1858.00005   1083.00225      4.37257      4.24978      4.14298      3.99070      3.92586     -0.03329      4.49595      2.39299      6.22895      3.94245   1275.14900   5023.24200      0.23017     93.74196
       1764.63960      6.12500   1847.66671   1078.78865      4.40130      4.21927      4.15658      4.04057      3.94752     -0.04034      4.88420      2.35654      6.21448      3.85583   1262.50000   5484.06200      0.19833     90.99890
       1764.79200      6.12500   1844.25006   1071.24856      4.26024      4.06611      4.01583      3.91927      3.84624     -0.05002      5.04259      2.32460      6.22895      3.82457   1199.14300   5050.70800      0.21509     87.26376
       1764.94440      6.12500   1849.50003   1064.44742      4.11790      3.87970      3.82722      3.75189      3.82924     -0.00936      6.64830      2.37491      6.22895      3.66732   1300.48100   4991.30400      0.22067     87.45502
       1765.09680      6.12500   1852.66669   1067.25663      4.00357      3.79509      3.75114      3.69344      3.84333      0.00636      7.90197      2.40166      6.22895      3.47557   1321.61500   5067.35000      0.18882     94.03516
       1765.24920      6.12500   1847.25014   1070.13980      3.92631      3.69832      3.69767      3.64466      3.88353      0.02456      8.91938      2.43270      6.22895      3.65325   1477.81800   5306.20100      0.18446    104.76540
       1765.40160      6.12500   1845.25001   1077.90178      3.85774      3.65635      3.59365      3.54201      3.86308      0.04724      8.74724      2.47388      6.22895      3.56875   1194.92500   5274.17500      0.19878    113.26000
       1765.55400      6.12500   1849.00005   1091.42943      3.79191      3.52726      3.46742      3.41959      3.69608      0.07642      7.81844      2.52091      6.22895      3.45186   1431.37200   5096.25300      0.24503    116.89810
       1765.70640      6.12500   1851.66674   1097.19556      3.84376      3.47612      3.38971      3.34164      3.58520      0.04735      7.66753      2.50303      6.22895      3.09013   1832.49900   5885.54100      0.19318    113.98660
       1765.85880      6.12500   1866.25009   1088.32482      4.40719      3.97440      3.77555      3.71938      3.94622      0.02778      7.38487      2.50827      6.22895      2.95967   2385.65400   7733.34600      0.09656    108.10290
       1766.01120      6.12500   1869.75014   1067.70018      6.32000      5.88243      5.42601      5.20385      5.53763      0.00078      6.49256      2.51114      6.22895      2.86349   2719.19000   8531.88400      0.06362     99.63562
       1766.16360      6.12500   1873.00021   1072.57920     11.78541     11.22564     10.03428      9.27195     10.12776     -0.03337      5.48272      2.48795      6.22895      2.77232   2444.77300   7090.04200      0.11387     92.16575
       1766.31600      6.12500   1864.66676   1077.45801     15.82441     14.31999     12.23780     10.11840     10.48578     -0.05847      5.31512      2.46226      6.22895      2.96519   1929.60800   5684.88700      0.18883     84.11615
       1766.46840      6.12500   1840.50003   1080.78451     11.60009      9.41747      8.08950      6.75843      6.64750     -0.05844      5.01789      2.43112      6.22895      3.39635   1427.17300   5369.98500      0.21048     78.60384
       1766.62080      6.12500   1840.00005   1073.31838      7.64393      6.07265      5.45258      4.83135      4.70535     -0.05999      4.88214      2.35283      6.21448      3.70643   1279.36800   5497.83000      0.20512     76.74422
       1766.77320      6.12500   1837.75016   1083.44579      6.08350      4.87112      4.48518      4.06111      3.97085     -0.04267      4.73129      2.31299      6.21448      3.88323   1376.48500   5438.42400      0.21269     80.10036
       1766.92560      6.12500   1830.66666   1096.97390      5.45363      4.53424      4.18863      3.83266      3.72133     -0.03068      4.51733      2.30626      6.21448      3.85755   1238.58000   5370.00100      0.21943     86.90128
