~VERSION INFORMATION 
VERS  .    2.0                                     :CWLS Log ASCII Standard - VERSION 2.0
WRAP  .    NO                                      :One Line per Depth step
PROD  .    Schlumberger Technology Corp.           :LAS Producer
PROG  .    Horizon LASWriter 6.2.68624.3100        :LAS Program name and version
SOURCE.    AT-33-F section 6.125" Run 1/1/1-Log[3]/Up:Run&Pass Information
CREA  .    07/28/2016                              :LAS Creation date {MM/DD/YYYY}
#--------------------------------------------------
~WELL INFORMATION 
#MNEM           .UNIT                      DATA            :DESCRIPTION
#----            ------          --------------            -----------------------------
STRT            .m                   3247.79640            :START DEPTH
STOP            .m                   1513.78920            :STOP DEPTH
STEP            .m                      -0.1524            :STEP
NULL            .                       -999.25            :NULL VALUE
COMP            .                         PTTEP            :COMPANY
WELL            .                       AT-33-F            :WELL NAME
FLD             .                ARTHIT / Block: 15A       :FIELD NAME
RIGN            .                          T-17            :Rig Name
RIGTYP          .                Tender Assisted           :Rig Type
SON             .                    DGEY-00011            :Service Order Number
SRVC            .                  Schlumberger            :SERVICE COMPANY
DATE            .                    07/28/2016            :LOG DATE(Composite Date for Composite LAP) (MM/DD/YYYY)
CLAB            .                     Rig Name:            :County Label
CNTY            .                          T-17            :COUNTY
SLAB            .                      Country:            :State/Province Label
STAT            .                      Thailand            :STATE or PROVINCE
PROV            .                      Thailand            :STATE or PROVINCE
CTRY            .                      Thailand            :COUNTRY
CONT_REGION     .                          Asia            :Continent Region
SECT            .                                          :Section
TOWN            .                                          :Township
RANG            .                                          :Range
API             .                                          :API NUMBER
UWI             .                                          :UNIQUE WELL ID
LUL             .                      Thailand            :Logging Unit Location
LUN             .                          7003            :Logging Unit Number
LOC             .                Gulf of Thailand          :FIELD LOCATION
FL1             .                X: 890 685.860 mE (DATUM: INDIAN 1975):Field Location Line 1
FL2             .                Y: 893 515.640 mN (UTM ZONE 47N):Field Location Line 2
LATI            .deg             8° 4' 7.168" N            :LATITUDE
LONG            .deg             102° 32' 38.971" E        :LONGITUDE
PDAT            .                           MSL            :Local Permanent Datum
LMF             .                            DF            :Logging Measured From
APD             .m                     29.00000            :Elevation of Depth Reference (LMF) Above Permanent Datum
EPD             .m                      0.00000            :Elevation of Permanent Datum (PDAT) above Mean Sea Level
EKB             .m                     29.00000            :Elevation of Kelly Bushing Above Permanent Datum
EDF             .m                     29.00000            :Elevation of Drill Floor Above Permanent Datum
EGL             .m                    -77.08000            :Elevation of Ground Level Above Permanent Datum
ECF             .m                      -999.25            :Elevation of Casing Flange above Permanent Datum
#--------------------------------------------------
~CURVE INFORMATION
#MNEM           .UNIT                  API CODE            :DESCRIPTION
#----            ------          --------------            -----------------------------
DEPT            .m                                         :                                                        Depth Index
BS              .in                                        :(RT)    (Borehole)              (6in)                   Bit Size
TENS            .lbf                                       :        (WLWorkflow)            (6in)                   Cable Tension
HTEN            .lbf                                       :        (LEH-QT)                (6in)                   Head Tension
AT10            .ohm.m                                     :        (QAIT-A)                (3in)                   Array Induction Two Foot Resistivity A10
AT20            .ohm.m                                     :        (QAIT-A)                (3in)                   Array Induction Two Foot Resistivity A20
AT30            .ohm.m                                     :        (QAIT-A)                (3in)                   Array Induction Two Foot Resistivity A30
AT60            .ohm.m                                     :        (QAIT-A)                (3in)                   Array Induction Two Foot Resistivity A60
AT90            .ohm.m                                     :        (QAIT-A)                (3in)                   Array Induction Two Foot Resistivity A90
DRHOLS          .g/cm3                                     :        (QLDT-B)                (6in)                   Density Correction Long Spacing
PEF             .                                          :        (QLDT-B)                (6in)                   Photoelectric Factor
RHOB            .g/cm3                                     :        (QLDT-B)                (6in)                   Bulk Density
CALI            .in                                        :        (QLDT-B)                (6in)                   Caliper
TNRA            .                                          :        (QCNT)                  (6in)                   Thermal Neutron Ratio
CFTC            .1/s                                       :        (QCNT)                  (6in)                   Corrected Far Thermal Count Rate
CNTC            .1/s                                       :        (QCNT)                  (6in)                   Corrected Near Thermal Count Rate
NPOR            .m3/m3                                     :        (QCNT)                  (6in)                   Enhanced Thermal Neutron Porosity in Selected Lithology
GR              .gAPI                                      :        (QTGC-B)                (6in)                   Gamma Ray
#-------------------------------------------------------------
#            DEPT           BS         TENS         HTEN         AT10         AT20         AT30         AT60         AT90       DRHOLS          PEF         RHOB         CALI         TNRA         CFTC         CNTC         NPOR           GR 
#                   (Borehole)  (WLWorkflo)     (LEH-QT)     (QAIT-A)     (QAIT-A)     (QAIT-A)     (QAIT-A)     (QAIT-A)     (QLDT-B)     (QLDT-B)     (QLDT-B)     (QLDT-B)       (QCNT)       (QCNT)       (QCNT)       (QCNT)     (QTGC-B) 
#                         (RT)                                                                                                                                                                                                                 
#                        (6in)        (6in)        (6in)        (3in)        (3in)        (3in)        (3in)        (3in)        (6in)        (6in)        (6in)        (6in)        (6in)        (6in)        (6in)        (6in)        (6in) 
~ASCII
# ...
       2444.64840      6.12500   5933.42965   1309.31853      6.57103      6.10906      6.02638      5.83558      5.98600     -0.04586      5.28340      2.61335      6.22081      2.93850   2109.01200   6989.50500      0.13606    114.97920
       2444.49600      6.12500   5941.57223   1306.45132      6.49765      6.05246      6.03811      5.73700      6.02785     -0.05504      5.45471      2.58935      6.22081      2.86895   2301.12400   6804.72200      0.14752    114.10100
       2444.34360      6.12500   5935.74967   1309.42914      6.17068      5.76968      5.78270      5.58805      5.75306     -0.05365      5.73285      2.57996      6.22081      2.81266   2330.67400   7052.10300      0.13610    114.19310
       2444.19120      6.12500   5922.57137   1305.69079      5.91559      5.50655      5.52663      5.41739      5.46753     -0.05510      6.53586      2.57054      6.21387      2.85936   2335.51500   7314.13800      0.12560    119.02680
       2444.03880      6.12500   5893.37544   1305.88075      5.59757      5.23410      5.25808      5.24494      5.17188     -0.04100      6.90616      2.59803      6.20632      2.87986   2231.65800   6937.03000      0.14591    125.78290
       2443.88640      6.12500   5917.57162   1287.36324      5.55999      5.25019      5.26119      5.28358      5.12822     -0.04460      7.53150      2.60792      6.21357      2.85727   2182.90300   6749.97800      0.15901    128.24730
       2443.73400      6.12500   5897.75022   1272.06117      5.85805      5.52209      5.52400      5.53464      5.31948     -0.04324      7.46137      2.62614      6.22081      2.85691   2242.01400   6857.23700      0.15592    126.38380
       2443.58160      6.12500   5856.99910   1281.86644      6.21778      5.88287      5.86816      5.76781      5.65083     -0.04180      7.28130      2.63145      6.22081      2.79055   2309.58500   7176.55600      0.14156    121.86890
       2443.42920      6.12500   5859.85642   1284.03652      6.73104      6.36033      6.31027      6.14722      6.03096     -0.04352      6.81736      2.64238      6.22806      2.76770   2638.89900   7592.48500      0.12943    116.22490
       2443.27680      6.12500   5862.37428   1286.47615      6.86294      6.45217      6.40025      6.13216      6.07634     -0.05197      5.91619      2.62661      6.22081      2.70815   2658.19800   7933.29500      0.11442    109.84890
       2443.12440      6.12500   5894.14428   1297.67568      6.71439      6.33162      6.26015      5.93446      5.96425     -0.04274      5.36888      2.63634      6.23530      2.70750   2723.96400   7938.51500      0.11280    106.71620
       2442.97200      6.12500   5903.99991   1301.12897      6.40707      6.01602      5.94227      5.61656      5.66228     -0.05654      5.91100      2.60827      6.22806      2.63839   2619.92100   7532.41500      0.12124    112.01490
       2442.81960      6.12500   5911.71535   1277.93790      6.03356      5.61741      5.57900      5.42822      5.36722     -0.05513      6.76812      2.60633      6.22081      2.67946   2546.01200   7028.28600      0.14072    119.47220
       2442.66720      6.12500   5904.50123   1276.93998      5.65282      5.28461      5.22917      5.11406      5.06282     -0.04817      6.67703      2.60683      6.22081      2.78731   2286.34400   6967.42000      0.14460    123.68260
       2442.51480      6.12500   5851.85772   1293.01854      5.52827      5.19357      5.14033      5.12595      4.97280     -0.06404      6.46305      2.57813      6.22081      2.91944   2181.02900   7032.84000      0.14033    121.46910
       2442.36240      6.12500   5841.25123   1304.99388      5.44032      5.10660      5.05048      4.99709      4.92378     -0.05991      5.85609      2.58037      6.21357      2.91269   2195.56300   7000.95900      0.14093    116.87320
       2442.21000      6.12500   5886.85598   1297.56462      5.36311      5.03978      4.97089      4.91597      4.84837     -0.04452      5.65199      2.61307      6.21357      2.92687   2163.92000   6546.99900      0.16090    115.95460
       2442.05760      6.12500   5936.99961   1294.03220      5.14294      4.89524      4.80817      4.74049      4.68234     -0.03845      5.50649      2.61889      6.20632      2.84681   2041.46800   6676.63400      0.14860    117.46600
       2441.90520      6.12500   5929.57192   1283.37131      4.95460      4.67554      4.60000      4.54352      4.50893     -0.04656      5.73881      2.60367      6.20632      2.89510   2294.48100   6721.05400      0.14398    120.04500
       2441.75280      6.12500   5913.37444   1264.63169      4.68735      4.37484      4.30441      4.15079      4.11897     -0.03891      6.00925      2.59509      6.21357      2.81459   2155.68700   6859.46900      0.13409    120.62560
       2441.60040      6.12500   5855.42769   1273.50265      4.32259      4.04945      3.96658      3.79666      3.76944     -0.03930      6.02318      2.59152      6.20632      2.85918   2261.01400   6804.77200      0.14272    122.25340
       2441.44800      6.12500   5852.12524   1295.67960      3.98669      3.71318      3.63002      3.52236      3.48864     -0.05006      6.49061      2.57884      6.21357      2.82634   2214.58000   6806.98400      0.13539    125.75650
       2441.29560      6.12500   5865.75091   1296.23398      3.64623      3.43458      3.35193      3.26336      3.21518     -0.05972      6.56852      2.56986      6.20632      2.89444   2241.40000   6893.69500      0.13710    129.25030
       2441.14320      6.12500   5929.14254   1299.33881      3.24500      3.10263      3.05126      2.99822      2.92290     -0.04942      6.55851      2.59510      6.19908      3.03609   2003.45900   6471.72500      0.14993    129.80080
       2440.99080      6.12500   5949.37534   1315.57542      2.96518      2.83950      2.79146      2.76391      2.69478     -0.05497      5.94024      2.61014      6.20632      3.22846   1851.47000   6540.76100      0.15835    128.84250
       2440.83840      6.12500   5972.71501   1317.52383      2.96052      2.82286      2.76252      2.76226      2.64236     -0.06252      5.79145      2.60823      6.20632      3.29310   1520.16900   5623.12800      0.20148    128.26750
       2440.68600      6.12500   5981.50054   1314.64066      3.03796      2.90163      2.84220      2.82523      2.71221     -0.05669      5.45368      2.61199      6.21357      3.38181   1593.90800   5482.65000      0.22184    128.51650
       2440.53360      6.12500   5987.99977   1292.68559      3.07357      2.91962      2.84629      2.80418      2.71919     -0.05780      5.74274      2.60245      6.19908      3.42598   1488.64900   5686.94700      0.19469    130.73330
       2440.38120      6.12500   5925.62428   1273.39182      3.06379      2.90816      2.83651      2.78315      2.71761     -0.07525      5.91504      2.56511      6.20632      3.49297   1543.23200   5929.33000      0.17960    133.92420
       2440.22880      6.12500   5872.14223   1273.50265      3.03261      2.87325      2.80058      2.74406      2.68042     -0.06649      6.11047      2.57044      6.20632      3.53003   1608.81700   5883.18400      0.19157    133.17470
       2440.07640      6.12500   5832.62532   1280.04481      2.99862      2.84358      2.77749      2.72625      2.66955     -0.05946      6.45743      2.58383      6.19908      3.46504   1403.90900   5531.82800      0.20574    127.99660
       2439.92400      6.12500   5823.42838   1274.51631      2.97146      2.81163      2.74737      2.69153      2.64401     -0.06027      6.94671      2.59273      6.19908      3.59037   1562.22900   5673.30400      0.20820    123.88060
       2439.77160      6.12500   5889.87516   1285.14550      2.93291      2.78557      2.72577      2.67824      2.62888     -0.06032      7.04593      2.59052      6.20632      3.61914   1368.01700   5558.21000      0.20936    124.09320
       2439.61920      6.12500   5888.12615   1312.42314      2.91854      2.77629      2.72241      2.68081      2.63437     -0.06600      7.17558      2.58530      6.19183      3.69087   1387.30200   5595.75100      0.22004    127.92130
