~VERSION INFORMATION 
VERS  .    2.0                                     :CWLS Log ASCII Standard - VERSION 2.0
WRAP  .    NO                                      :One Line per Depth step
PROD  .    Schlumberger Technology Corp.           :LAS Producer
PROG  .    Horizon LASWriter 6.2.68624.3100        :LAS Program name and version
SOURCE.    AT-33-F section 6.125" Run 1/1/1-Log[2]/Down:Run&Pass Information
CREA  .    07/28/2016                              :LAS Creation date {MM/DD/YYYY}
#--------------------------------------------------
~WELL INFORMATION 
#MNEM           .UNIT                      DATA            :DESCRIPTION
#----            ------          --------------            -----------------------------
STRT            .m                   1518.36120            :START DEPTH
STOP            .m                   3242.61480            :STOP DEPTH
STEP            .m                       0.1524            :STEP
NULL            .                       -999.25            :NULL VALUE
COMP            .                         PTTEP            :COMPANY
WELL            .                       AT-33-F            :WELL NAME
FLD             .                ARTHIT / Block: 15A       :FIELD NAME
RIGN            .                          T-17            :Rig Name
RIGTYP          .                Tender Assisted           :Rig Type
SON             .                    DGEY-00011            :Service Order Number
SRVC            .                  Schlumberger            :SERVICE COMPANY
DATE            .                    07/28/2016            :LOG DATE(Composite Date for Composite LAP) (MM/DD/YYYY)
CLAB            .                     Rig Name:            :County Label
CNTY            .                          T-17            :COUNTY
SLAB            .                      Country:            :State/Province Label
STAT            .                      Thailand            :STATE or PROVINCE
PROV            .                      Thailand            :STATE or PROVINCE
CTRY            .                      Thailand            :COUNTRY
CONT_REGION     .                          Asia            :Continent Region
SECT            .                                          :Section
TOWN            .                                          :Township
RANG            .                                          :Range
API             .                                          :API NUMBER
UWI             .                                          :UNIQUE WELL ID
LUL             .                      Thailand            :Logging Unit Location
LUN             .                          7003            :Logging Unit Number
LOC             .                Gulf of Thailand          :FIELD LOCATION
FL1             .                X: 890 685.860 mE (DATUM: INDIAN 1975):Field Location Line 1
FL2             .                Y: 893 515.640 mN (UTM ZONE 47N):Field Location Line 2
LATI            .deg             8° 4' 7.168" N            :LATITUDE
LONG            .deg             102° 32' 38.971" E        :LONGITUDE
PDAT            .                           MSL            :Local Permanent Datum
LMF             .                            DF            :Logging Measured From
APD             .m                     29.00000            :Elevation of Depth Reference (LMF) Above Permanent Datum
EPD             .m                      0.00000            :Elevation of Permanent Datum (PDAT) above Mean Sea Level
EKB             .m                     29.00000            :Elevation of Kelly Bushing Above Permanent Datum
EDF             .m                     29.00000            :Elevation of Drill Floor Above Permanent Datum
EGL             .m                    -77.08000            :Elevation of Ground Level Above Permanent Datum
ECF             .m                      -999.25            :Elevation of Casing Flange above Permanent Datum
#--------------------------------------------------
~CURVE INFORMATION
#MNEM           .UNIT                  API CODE            :DESCRIPTION
#----            ------          --------------            -----------------------------
DEPT            .m                                         :                                                        Depth Index
BS              .in                                        :(RT)    (Borehole)              (6in)                   Bit Size
TENS            .lbf                                       :        (WLWorkflow)            (6in)                   Cable Tension
HTEN            .lbf                                       :        (LEH-QT)                (6in)                   Head Tension
AT10            .ohm.m                                     :        (QAIT-A)                (3in)                   Array Induction Two Foot Resistivity A10
AT20            .ohm.m                                     :        (QAIT-A)                (3in)                   Array Induction Two Foot Resistivity A20
AT30            .ohm.m                                     :        (QAIT-A)                (3in)                   Array Induction Two Foot Resistivity A30
AT60            .ohm.m                                     :        (QAIT-A)                (3in)                   Array Induction Two Foot Resistivity A60
AT90            .ohm.m                                     :        (QAIT-A)                (3in)                   Array Induction Two Foot Resistivity A90
DRHOLS          .g/cm3                                     :        (QLDT-B)                (6in)                   Density Correction Long Spacing
PEF             .                                          :        (QLDT-B)                (6in)                   Photoelectric Factor
RHOB            .g/cm3                                     :        (QLDT-B)                (6in)                   Bulk Density
CALI            .in                                        :        (QLDT-B)                (6in)                   Caliper
TNRA            .                                          :        (QCNT)                  (6in)                   Thermal Neutron Ratio
CFTC            .1/s                                       :        (QCNT)                  (6in)                   Corrected Far Thermal Count Rate
CNTC            .1/s                                       :        (QCNT)                  (6in)                   Corrected Near Thermal Count Rate
NPOR            .m3/m3                                     :        (QCNT)                  (6in)                   Enhanced Thermal Neutron Porosity in Selected Lithology
GR              .gAPI                                      :        (QTGC-B)                (6in)                   Gamma Ray
#-------------------------------------------------------------
#            DEPT           BS         TENS         HTEN         AT10         AT20         AT30         AT60         AT90       DRHOLS          PEF         RHOB         CALI         TNRA         CFTC         CNTC         NPOR           GR 
#                   (Borehole)  (WLWorkflo)     (LEH-QT)     (QAIT-A)     (QAIT-A)     (QAIT-A)     (QAIT-A)     (QAIT-A)     (QLDT-B)     (QLDT-B)     (QLDT-B)     (QLDT-B)       (QCNT)       (QCNT)       (QCNT)       (QCNT)     (QTGC-B) 
#                         (RT)                                                                                                                                                                                                                 
#                        (6in)        (6in)        (6in)        (3in)        (3in)        (3in)        (3in)        (3in)        (6in)        (6in)        (6in)        (6in)        (6in)        (6in)        (6in)        (6in)        (6in) 
~ASCII
# ...
       2326.69080      6.12500   2157.25021   1073.61400      3.46193      3.32314      3.27881      3.22957      3.25214     -0.04501      5.89287      2.58732      6.22895      3.44106   1600.26900   5990.47800      0.18235    139.15330
       2326.84320      6.12500   2145.50012   1077.67989      3.24501      3.10614      3.05669      3.01453      3.02130     -0.04304      6.01911      2.58278      6.22895      3.38926   1536.93000   5566.18400      0.20485    137.67720
       2326.99560      6.12500   2137.00009   1075.01861      3.03484      2.90608      2.87761      2.82440      2.82015     -0.05634      6.31826      2.57618      6.22895      3.47321   1490.51200   5392.80000      0.21134    140.86950
       2327.14800      6.12500   2146.49984   1068.58727      2.87157      2.77262      2.74590      2.70258      2.69677     -0.05954      6.40204      2.57095      6.21448      3.61220   1368.03700   5493.27600      0.20350    148.39800
       2327.30040      6.12500   2153.50017   1075.90570      2.77466      2.67645      2.63822      2.60321      2.60536     -0.05424      6.51893      2.57459      6.21448      3.65270   1368.04300   5570.73300      0.19924    157.80690
       2327.45280      6.12500   2161.00002   1079.89763      2.70163      2.60950      2.57089      2.53303      2.52878     -0.06027      7.10773      2.56352      6.21448      3.62143   1422.92700   5335.03200      0.20670    163.26160
       2327.60520      6.12500   2166.25021   1091.87321      2.64240      2.55360      2.51493      2.47372      2.45376     -0.07455      6.76412      2.53913      6.21448      3.57421   1363.80200   5338.04900      0.20141    162.54210
       2327.75760      6.12500   2179.33319   1102.51814      2.59782      2.50741      2.47701      2.44098      2.40881     -0.06114      7.01940      2.55277      6.21448      3.46640   1313.16700   5146.35400      0.20324    156.33120
       2327.91000      6.12500   2178.25006   1098.74786      2.55949      2.45912      2.43993      2.40884      2.36491     -0.05479      6.24597      2.56191      6.21448      3.57904   1498.92900   5096.32500      0.21619    149.60310
       2328.06240      6.12500   2179.74999   1104.29233      2.50315      2.39363      2.36240      2.33209      2.30057     -0.03981      6.59237      2.58400      6.21448      3.53380   1270.92700   5438.42200      0.18991    147.35340
       2328.21480      6.12500   2193.33339   1098.96975      2.40691      2.31981      2.28031      2.24985      2.22130     -0.03675      6.63012      2.59142      6.21448      3.71856   1444.03900   5447.56300      0.20521    150.07110
       2328.36720      6.12500   2199.49990   1082.78036      2.42187      2.32722      2.29941      2.27680      2.26574     -0.03212      7.64467      2.60104      6.21448      3.54827   1368.04000   5470.36000      0.18826    158.62520
       2328.51960      6.12500   2190.50012   1086.99418      2.45173      2.35820      2.33826      2.31647      2.29860     -0.05659      7.23014      2.57041      6.21448      3.52837   1446.85500   5392.81200      0.19519    169.25270
       2328.67200      6.12500   2178.25006   1086.10708      2.43073      2.33491      2.30590      2.28315      2.25914     -0.06279      6.94414      2.56538      6.21448      3.48161   1346.92500   4994.35000      0.21217    177.56570
       2328.82440      6.12500   2164.66688   1086.32874      2.38505      2.29445      2.26289      2.23640      2.20987     -0.09164      6.51988      2.52873      6.22895      3.53497   1363.81800   5246.80000      0.19963    182.66230
       2328.97680      6.12500   2155.00009   1085.66353      2.36816      2.29133      2.26766      2.24850      2.22357     -0.07774      6.78152      2.56257      6.21448      3.65451   1330.05900   5187.50200      0.20524    181.85900
       2329.12920      6.12500   2151.33324   1071.54418      2.38639      2.31402      2.28422      2.27031      2.24104     -0.07891      6.21477      2.56562      6.21448      3.68889   1266.70100   5187.58200      0.21469    175.98280
       2329.28160      6.12500   2144.25018   1070.36146      2.39935      2.32740      2.29044      2.27463      2.23996     -0.05728      6.59701      2.60681      6.22895      3.71585   1317.36900   5214.86500      0.22211    169.69450
       2329.43400      6.12500   2147.25003   1075.01861      2.38718      2.31692      2.28457      2.26925      2.23184     -0.04498      5.85493      2.61737      6.22895      3.72905   1308.92800   5219.42500      0.22270    165.76650
       2329.58640      6.12500   2147.00004   1078.78865      2.38882      2.31305      2.27843      2.26485      2.22348     -0.04505      5.79069      2.60854      6.21448      3.73387   1338.48000   5538.81200      0.20113    168.40450
       2329.73880      6.12500   2152.66680   1091.87321      2.37139      2.29641      2.26345      2.24534      2.19508     -0.05624      6.00453      2.58326      6.21448      3.64603   1376.48400   5470.36100      0.19374    174.44520
       2329.89120      6.12500   2158.25016   1097.63911      2.34748      2.27185      2.23499      2.21948      2.17331     -0.04777      6.74821      2.59432      6.21448      3.53297   1414.48300   5237.68800      0.20374    178.82710
       2330.04360      6.12500   2176.24993   1103.18334      2.32291      2.25069      2.21401      2.20369      2.15582     -0.04609      7.09303      2.60032      6.21448      3.57579   1351.14900   5096.24100      0.21229    180.52450
       2330.19600      6.12500   2178.66663   1111.75846      2.30635      2.23604      2.20325      2.19121      2.14547     -0.05793      6.60710      2.58934      6.22895      3.72780   1249.81600   5140.34800      0.21707    178.33450
       2330.34840      6.12500   2192.00005   1112.71952      2.29127      2.22429      2.18965      2.17924      2.13043     -0.05418      6.48468      2.59952      6.21448      3.79270   1224.47800   5137.31600      0.22201    174.74030
       2330.50080      6.12500   2195.25011   1103.40501      2.26715      2.20035      2.16810      2.15875      2.11021     -0.04612      6.70176      2.60892      6.21448      3.78528   1287.81500   5128.17800      0.22124    172.19640
       2330.65320      6.12500   2199.75011   1106.50984      2.23677      2.17593      2.14179      2.13253      2.08459     -0.05180      7.17824      2.60193      6.21448      3.82199   1270.92300   5196.62700      0.21924    169.54520
       2330.80560      6.12500   2207.00020   1110.94532      2.21951      2.15478      2.11696      2.10773      2.06163     -0.04423      6.90766      2.61129      6.21448      3.96005   1186.48100   5119.05200      0.23637    171.35880
       2330.95800      6.12500   2195.49987   1116.26767      2.21631      2.15012      2.11166      2.10980      2.06097     -0.03010      6.65156      2.63109      6.21448      3.87161   1148.47600   5087.13700      0.23459    172.56880
       2331.11040      6.12500   2195.00012   1113.23680      2.21724      2.15696      2.11716      2.11398      2.06206     -0.04608      6.89408      2.60135      6.21448      3.84566   1342.72600   5105.37000      0.22090    176.67860
       2331.26280      6.12500   2201.75001   1112.05431      2.21821      2.16615      2.12312      2.11905      2.06605     -0.05485      6.62539      2.60385      6.22895      3.79908   1241.36300   5251.45300      0.21461    181.39540
       2331.41520      6.12500   2193.00000   1099.63496      2.22408      2.16573      2.12592      2.12259      2.06759     -0.05839      6.60715      2.61624      6.22895      3.86718   1148.46000   4913.74400      0.24001    183.47260
       2331.56760      6.12500   2193.00000   1099.63496      2.24184      2.18125      2.14265      2.13847      2.08143     -0.05857      6.12985      2.61798      6.21448      3.76043   1296.27600   5214.80100      0.21600    182.39110
       2331.72000      6.12500   2189.33337   1094.53427      2.26540      2.20174      2.16161      2.15583      2.09658     -0.07096      6.38976      2.59733      6.21448      3.76919   1313.15100   5100.87800      0.21638    176.99660
